[{"name":"Barclay Elementary School","city":"Warrington","lat":40.2364,"lng":-75.1279,"district":"Central Bucks","level":"elementary"},{"name":"Bridge Valley Elementary School","city":"Furlong","lat":40.2814,"lng":-75.0902,"district":"Central Bucks","level":"elementary"},{"name":"Buckingham Elementary School","city":"Buckingham","lat":40.3207,"lng":-75.0583,"district":"Central Bucks","level":"elementary"},{"name":"Butler Elementary School","city":"Chalfont","lat":40.2694,"lng":-75.2114,"district":"Central Bucks","level":"elementary"},{"name":"Cold Spring Elementary School","city":"Doylestown","lat":40.3605,"lng":-75.0922,"district":"Central Bucks","level":"elementary"},{"name":"Doyle Elementary School","city":"Doylestown","lat":40.3109,"lng":-75.1438,"district":"Central Bucks","level":"elementary"},{"name":"Gayman Elementary School","city":"Doylestown","lat":40.3569,"lng":-75.1285,"district":"Central Bucks","level":"elementary"},{"name":"Groveland Elementary School","city":"Doylestown","lat":40.3605,"lng":-75.1428,"district":"Central Bucks","level":"elementary"},{"name":"Jamison Elementary School","city":"Jamison","lat":40.2569,"lng":-75.0967,"district":"Central Bucks","level":"elementary"},{"name":"Kutz Elementary School","city":"Doylestown","lat":40.286,"lng":-75.1297,"district":"Central Bucks","level":"elementary"},{"name":"Linden Elementary School","city":"Doylestown","lat":40.3172,"lng":-75.1179,"district":"Central Bucks","level":"elementary"},{"name":"Mill Creek Elementary School","city":"Warrington","lat":40.2652,"lng":-75.1665,"district":"Central Bucks","level":"elementary"},{"name":"Pine Run Elementary School","city":"New Britain","lat":40.2953,"lng":-75.1955,"district":"Central Bucks","level":"elementary"},{"name":"Titus Elementary School","city":"Warrington","lat":40.2405,"lng":-75.1389,"district":"Central Bucks","level":"elementary"},{"name":"Warwick Elementary School","city":"Jamison","lat":40.2501,"lng":-75.0825,"district":"Central Bucks","level":"elementary"},{"name":"Holicong Middle School","city":"Doylestown","lat":40.3409,"lng":-75.0582,"district":"Central Bucks","level":"middle"},{"name":"Lenape Middle School","city":"Doylestown","lat":40.30712,"lng":-75.14262,"district":"Central Bucks","level":"middle"},{"name":"Tamanend Middle School","city":"Warrington","lat":40.2553,"lng":-75.1295,"district":"Central Bucks","level":"middle"},{"name":"Tohickon Middle School","city":"Doylestown","lat":40.362,"lng":-75.1315,"district":"Central Bucks","level":"middle"},{"name":"Unami Middle School","city":"Chalfont","lat":40.2839,"lng":-75.1974,"district":"Central Bucks","level":"middle"},{"name":"Central Bucks HS-East","city":"Doylestown","lat":40.3391,"lng":-75.0564,"district":"Central Bucks","level":"high"},{"name":"Central Bucks HS-South","city":"Warrington","lat":40.2626,"lng":-75.1614,"district":"Central Bucks","level":"high"},{"name":"Central Bucks HS-West","city":"Doylestown","lat":40.30529,"lng":-75.13797,"district":"Central Bucks","level":"high"},{"name":"Colonial Elementary School","city":"Plymouth Meeting","lat":40.1022,"lng":-75.2665,"district":"Colonial","level":"elementary"},{"name":"Conshohocken Elementary School","city":"Conshohocken","lat":40.0748,"lng":-75.3029,"district":"Colonial","level":"elementary"},{"name":"Plymouth Elementary School","city":"Plymouth Meeting","lat":40.1154,"lng":-75.2952,"district":"Colonial","level":"elementary"},{"name":"Ridge Park Elementary School","city":"Conshohocken","lat":40.0976,"lng":-75.2902,"district":"Colonial","level":"elementary"},{"name":"Whitemarsh Elementary School","city":"Lafayette Hill","lat":40.0987,"lng":-75.254,"district":"Colonial","level":"elementary"},{"name":"Colonial Middle School","city":"Plymouth Meeting","lat":40.127,"lng":-75.3079,"district":"Colonial","level":"middle"},{"name":"Plymouth-Whitemarsh Senior High School","city":"Plymouth Meeting","lat":40.0994,"lng":-75.27,"district":"Colonial","level":"high"},{"name":"Blair Mill Elementary","city":"Hatboro","lat":40.1883,"lng":-75.114,"district":"Hatboro-Horsham","level":"elementary"},{"name":"Crooked Billet Elementary School","city":"Hatboro","lat":40.18448,"lng":-75.09937,"district":"Hatboro-Horsham","level":"elementary"},{"name":"Hallowell Elementary School","city":"Horsham","lat":40.19447,"lng":-75.13617,"district":"Hatboro-Horsham","level":"elementary"},{"name":"Simmons Elementary School","city":"Horsham","lat":40.1972,"lng":-75.1639,"district":"Hatboro-Horsham","level":"elementary"},{"name":"Keith Valley Middle School","city":"Horsham","lat":40.18594,"lng":-75.12701,"district":"Hatboro-Horsham","level":"middle"},{"name":"Hatboro-Horsham Senior High School","city":"Horsham","lat":40.19722,"lng":-75.1637,"district":"Hatboro-Horsham","level":"high"},{"name":"Arrowhead Elementary School","city":"Collegeville","lat":40.1631,"lng":-75.4501,"district":"Methacton","level":"elementary"},{"name":"Eagleville Elementary School","city":"Eagleville","lat":40.1647,"lng":-75.4046,"district":"Methacton","level":"elementary"},{"name":"Skyview Upper Elementary School","city":"Eagleville","lat":40.14883,"lng":-75.42346,"district":"Methacton","level":"elementary"},{"name":"Woodland Elementary School","city":"Norristown","lat":40.1362,"lng":-75.4054,"district":"Methacton","level":"elementary"},{"name":"Worcester Elementary School","city":"Lansdale","lat":40.2033,"lng":-75.3468,"district":"Methacton","level":"elementary"},{"name":"Arcola Intermediate School","city":"Eagleville","lat":40.1486,"lng":-75.4239,"district":"Methacton","level":"middle"},{"name":"Methacton HS","city":"Eagleville","lat":40.1756,"lng":-75.3978,"district":"Methacton","level":"high"},{"name":"Bridle Path Elementary School","city":"Lansdale","lat":40.2589,"lng":-75.2535,"district":"North Penn","level":"elementary"},{"name":"General Nash Elementary School","city":"Harleysville","lat":40.2352,"lng":-75.347,"district":"North Penn","level":"elementary"},{"name":"Gwyn-Nor Elementary School","city":"North Wales","lat":40.2215,"lng":-75.2632,"district":"North Penn","level":"elementary"},{"name":"Gwynedd Square Elementary School","city":"Lansdale","lat":40.2224,"lng":-75.3093,"district":"North Penn","level":"elementary"},{"name":"Hatfield Elementary School","city":"Hatfield","lat":40.2796,"lng":-75.3068,"district":"North Penn","level":"elementary"},{"name":"Inglewood Elementary School","city":"Lansdale","lat":40.2493,"lng":-75.3057,"district":"North Penn","level":"elementary"},{"name":"Knapp Elementary School","city":"Lansdale","lat":40.2383,"lng":-75.2638,"district":"North Penn","level":"elementary"},{"name":"Kulp Elementary School","city":"Hatfield","lat":40.2671,"lng":-75.2771,"district":"North Penn","level":"elementary"},{"name":"Montgomery Elementary School","city":"North Wales","lat":40.246,"lng":-75.2155,"district":"North Penn","level":"elementary"},{"name":"North Wales Elementary School","city":"North Wales","lat":40.2103,"lng":-75.2713,"district":"North Penn","level":"elementary"},{"name":"Oak Park Elementary School","city":"Lansdale","lat":40.2547,"lng":-75.2956,"district":"North Penn","level":"elementary"},{"name":"Walton Farm Elementary School","city":"Lansdale","lat":40.2549,"lng":-75.3241,"district":"North Penn","level":"elementary"},{"name":"York Avenue Elementary School","city":"Lansdale","lat":40.2444,"lng":-75.2958,"district":"North Penn","level":"elementary"},{"name":"Pennbrook Middle School","city":"North Wales","lat":40.2208,"lng":-75.2688,"district":"North Penn","level":"middle"},{"name":"Penndale Middle School","city":"Lansdale","lat":40.2356,"lng":-75.2792,"district":"North Penn","level":"middle"},{"name":"Pennfield Middle School","city":"Hatfield","lat":40.273,"lng":-75.3114,"district":"North Penn","level":"middle"},{"name":"North Penn Senior High School","city":"Lansdale","lat":40.2353,"lng":-75.3154,"district":"North Penn","level":"high"},{"name":"E M Crouthamel Elementary School","city":"Souderton","lat":40.3122,"lng":-75.3109,"district":"Souderton Area","level":"elementary"},{"name":"Franconia Elementary School","city":"Souderton","lat":40.3118,"lng":-75.3515,"district":"Souderton Area","level":"elementary"},{"name":"Oak Ridge Elementary School","city":"Harleysville","lat":40.2674,"lng":-75.3874,"district":"Souderton Area","level":"elementary"},{"name":"Salford Hills Elementary School","city":"Harleysville","lat":40.31021,"lng":-75.43757,"district":"Souderton Area","level":"elementary"},{"name":"Vernfield Elementary School","city":"Telford","lat":40.30761,"lng":-75.41029,"district":"Souderton Area","level":"elementary"},{"name":"West Broad Street Elementary School","city":"Souderton","lat":40.2998,"lng":-75.3291,"district":"Souderton Area","level":"elementary"},{"name":"Indian Crest Middle School","city":"Souderton","lat":40.3166,"lng":-75.3348,"district":"Souderton Area","level":"middle"},{"name":"Indian Valley Middle School","city":"Harleysville","lat":40.2855,"lng":-75.3791,"district":"Souderton Area","level":"middle"},{"name":"Souderton Area HS","city":"Souderton","lat":40.29652,"lng":-75.3542,"district":"Souderton Area","level":"high"},{"name":"Brooke Elementary School","city":"Royersford","lat":40.1964,"lng":-75.537,"district":"Spring-Ford Area","level":"elementary"},{"name":"Evans Elementary School","city":"Limerick","lat":40.2317,"lng":-75.5117,"district":"Spring-Ford Area","level":"elementary"},{"name":"Limerick Elementary School","city":"Royersford","lat":40.2312,"lng":-75.5415,"district":"Spring-Ford Area","level":"elementary"},{"name":"Oaks Elementary School","city":"Oaks","lat":40.14255,"lng":-75.46506,"district":"Spring-Ford Area","level":"elementary"},{"name":"Royersford Elementary School","city":"Royersford","lat":40.1842,"lng":-75.5349,"district":"Spring-Ford Area","level":"elementary"},{"name":"Spring City Elementary School","city":"Spring City","lat":40.1715,"lng":-75.5497,"district":"Spring-Ford Area","level":"elementary"},{"name":"Upper Providence Elementary School","city":"Royersford","lat":40.1894,"lng":-75.5108,"district":"Spring-Ford Area","level":"elementary"},{"name":"Spring-Ford Intermediate School 5th/6th","city":"Royersford","lat":40.18818,"lng":-75.51512,"district":"Spring-Ford Area","level":"middle"},{"name":"Spring-Ford Middle School 7th Grade Ctr","city":"Royersford","lat":40.1884,"lng":-75.51439,"district":"Spring-Ford Area","level":"middle"},{"name":"Spring-Ford Middle School 8th Grade Ctr","city":"Royersford","lat":40.1871,"lng":-75.5317,"district":"Spring-Ford Area","level":"middle"},{"name":"Spring-Ford Senior High School 9-12 Ctr","city":"Royersford","lat":40.19014,"lng":-75.52602,"district":"Spring-Ford Area","level":"high"},{"name":"Fort Washington Elementary School","city":"Fort Washington","lat":40.14823,"lng":-75.20185,"district":"Upper Dublin","level":"elementary"},{"name":"Jarrettown Elementary School","city":"Dresher","lat":40.1516,"lng":-75.1701,"district":"Upper Dublin","level":"elementary"},{"name":"Maple Glen Elementary School","city":"Maple Glen","lat":40.164,"lng":-75.1838,"district":"Upper Dublin","level":"elementary"},{"name":"Thomas Fitzwater Elementary School","city":"Willow Grove","lat":40.1419,"lng":-75.1464,"district":"Upper Dublin","level":"elementary"},{"name":"Sandy Run Middle School","city":"Dresher","lat":40.12864,"lng":-75.1694,"district":"Upper Dublin","level":"middle"},{"name":"Upper Dublin HS","city":"Fort Washington","lat":40.153,"lng":-75.1998,"district":"Upper Dublin","level":"high"},{"name":"Blue Bell Elementary School","city":"Blue Bell","lat":40.1578,"lng":-75.2715,"district":"Wissahickon","level":"elementary"},{"name":"Lower Gwynedd Elementary School","city":"Ambler","lat":40.16862,"lng":-75.23029,"district":"Wissahickon","level":"elementary"},{"name":"Shady Grove Elementary School","city":"Ambler","lat":40.146,"lng":-75.254,"district":"Wissahickon","level":"elementary"},{"name":"Stony Creek Elementary School","city":"Blue Bell","lat":40.1654,"lng":-75.3106,"district":"Wissahickon","level":"elementary"},{"name":"Wissahickon Middle School","city":"Ambler","lat":40.1695,"lng":-75.2267,"district":"Wissahickon","level":"middle"},{"name":"Wissahickon Senior High School","city":"Ambler","lat":40.1719,"lng":-75.2278,"district":"Wissahickon","level":"high"}]