[
  {
    "id": "420204000620",
    "name": "Copper Beech School",
    "city": "Glenside",
    "lat": 40.1145,
    "lng": -75.1385,
    "district": "Abington",
    "level": "other",
    "score": 9,
    "k8": false
  },
  {
    "id": "420204003226",
    "name": "Rydal Elementary School",
    "city": "Huntingdon Valley",
    "lat": 40.0995,
    "lng": -75.0914,
    "district": "Abington",
    "level": "elementary",
    "score": 10,
    "k8": false
  },
  {
    "id": "420204003229",
    "name": "Highland School",
    "city": "Abington",
    "lat": 40.1233,
    "lng": -75.1236,
    "district": "Abington",
    "level": "other",
    "score": 9,
    "k8": false
  },
  {
    "id": "420204003232",
    "name": "Overlook School",
    "city": "Abington",
    "lat": 40.13078,
    "lng": -75.11135,
    "district": "Abington",
    "level": "other",
    "score": 9,
    "k8": false
  },
  {
    "id": "420204003234",
    "name": "Roslyn School",
    "city": "Roslyn",
    "lat": 40.1261,
    "lng": -75.1403,
    "district": "Abington",
    "level": "other",
    "score": 8,
    "k8": false
  },
  {
    "id": "420204003241",
    "name": "Abington Senior High School",
    "city": "Abington",
    "lat": 40.112,
    "lng": -75.1316,
    "district": "Abington",
    "level": "high",
    "score": 5,
    "k8": false
  },
  {
    "id": "420204003242",
    "name": "Abington Middle School",
    "city": "Abington",
    "lat": 40.1156,
    "lng": -75.1296,
    "district": "Abington",
    "level": "middle",
    "score": 5,
    "k8": false
  },
  {
    "id": "420204004910",
    "name": "Willow Hill School",
    "city": "Willow Grove",
    "lat": 40.1413,
    "lng": -75.1314,
    "district": "Abington",
    "level": "other",
    "score": 9,
    "k8": false
  },
  {
    "id": "420204005075",
    "name": "McKinley School",
    "city": "Elkins Park",
    "lat": 40.0813,
    "lng": -75.1055,
    "district": "Abington",
    "level": "other",
    "score": 9,
    "k8": false
  },
  {
    "id": "420240000304",
    "name": "Lower Gwynedd Elementary School",
    "city": "Ambler",
    "lat": 40.16862,
    "lng": -75.23029,
    "district": "Wissahickon",
    "level": "elementary",
    "score": 10,
    "k8": false
  },
  {
    "id": "420240003245",
    "name": "Wissahickon Middle School",
    "city": "Ambler",
    "lat": 40.1695,
    "lng": -75.2267,
    "district": "Wissahickon",
    "level": "middle",
    "score": 8,
    "k8": false
  },
  {
    "id": "420240003247",
    "name": "Wissahickon Senior High School",
    "city": "Ambler",
    "lat": 40.1719,
    "lng": -75.2278,
    "district": "Wissahickon",
    "level": "high",
    "score": 8,
    "k8": false
  },
  {
    "id": "420240003414",
    "name": "Stony Creek Elementary School",
    "city": "Blue Bell",
    "lat": 40.1654,
    "lng": -75.3106,
    "district": "Wissahickon",
    "level": "elementary",
    "score": 10,
    "k8": false
  },
  {
    "id": "420240006470",
    "name": "Blue Bell Elementary School",
    "city": "Blue Bell",
    "lat": 40.1578,
    "lng": -75.2715,
    "district": "Wissahickon",
    "level": "elementary",
    "score": 9,
    "k8": false
  },
  {
    "id": "420240006835",
    "name": "Shady Grove Elementary School",
    "city": "Ambler",
    "lat": 40.146,
    "lng": -75.254,
    "district": "Wissahickon",
    "level": "elementary",
    "score": 9,
    "k8": false
  },
  {
    "id": "420396000754",
    "name": "Gilbertsville Elementary School",
    "city": "Gilbertsville",
    "lat": 40.3201,
    "lng": -75.6079,
    "district": "Boyertown Area",
    "level": "elementary",
    "score": 8,
    "k8": false
  },
  {
    "id": "420396000755",
    "name": "New Hanover-Upper Frederick El",
    "city": "Frederick",
    "lat": 40.3139,
    "lng": -75.5413,
    "district": "Boyertown Area",
    "level": "elementary",
    "score": 8,
    "k8": false
  },
  {
    "id": "420396000762",
    "name": "Colebrookdale Elementary School",
    "city": "Boyertown",
    "lat": 40.3391,
    "lng": -75.6275,
    "district": "Boyertown Area",
    "level": "elementary",
    "score": 6,
    "k8": false
  },
  {
    "id": "420396000763",
    "name": "Earl Elementary School",
    "city": "Boyertown",
    "lat": 40.3695,
    "lng": -75.7061,
    "district": "Boyertown Area",
    "level": "elementary",
    "score": 8,
    "k8": false
  },
  {
    "id": "420396000766",
    "name": "Washington Elementary School",
    "city": "Barto",
    "lat": 40.3903,
    "lng": -75.595,
    "district": "Boyertown Area",
    "level": "elementary",
    "score": 6,
    "k8": false
  },
  {
    "id": "420396006305",
    "name": "Boyertown Area Middle School-West",
    "city": "Boyertown",
    "lat": 40.324,
    "lng": -75.632,
    "district": "Boyertown Area",
    "level": "middle",
    "score": 5,
    "k8": false
  },
  {
    "id": "420396006306",
    "name": "Boyertown Area Senior High School",
    "city": "Boyertown",
    "lat": 40.33195,
    "lng": -75.62835,
    "district": "Boyertown Area",
    "level": "high",
    "score": 6,
    "k8": false
  },
  {
    "id": "420396006307",
    "name": "Boyertown Elementary School",
    "city": "Boyertown",
    "lat": 40.3253,
    "lng": -75.6303,
    "district": "Boyertown Area",
    "level": "elementary",
    "score": 7,
    "k8": false
  },
  {
    "id": "420396006804",
    "name": "Boyertown Area Middle School-East",
    "city": "Gilbertsville",
    "lat": 40.3153,
    "lng": -75.5775,
    "district": "Boyertown Area",
    "level": "middle",
    "score": 6,
    "k8": false
  },
  {
    "id": "420519001040",
    "name": "William Tennent High School",
    "city": "Warminster",
    "lat": 40.18276,
    "lng": -75.06996,
    "district": "Centennial",
    "level": "high",
    "score": 3,
    "k8": false
  },
  {
    "id": "420519005007",
    "name": "McDonald Elementary School",
    "city": "Warminster",
    "lat": 40.1908,
    "lng": -75.06552,
    "district": "Centennial",
    "level": "elementary",
    "score": 5,
    "k8": false
  },
  {
    "id": "420519007388",
    "name": "Willow Dale Elementary School",
    "city": "Warminster",
    "lat": 40.2141,
    "lng": -75.1054,
    "district": "Centennial",
    "level": "elementary",
    "score": 5,
    "k8": false
  },
  {
    "id": "420519007451",
    "name": "Davis Elementary School",
    "city": "Southampton",
    "lat": 40.186,
    "lng": -75.039,
    "district": "Centennial",
    "level": "elementary",
    "score": 8,
    "k8": false
  },
  {
    "id": "420519009937",
    "name": "Klinger Middle School",
    "city": "Southampton",
    "lat": 40.1857,
    "lng": -75.0316,
    "district": "Centennial",
    "level": "middle",
    "score": 5,
    "k8": false
  },
  {
    "id": "420519009938",
    "name": "Log College Middle School",
    "city": "Warminster",
    "lat": 40.21681,
    "lng": -75.1059,
    "district": "Centennial",
    "level": "middle",
    "score": 4,
    "k8": false
  },
  {
    "id": "420531000171",
    "name": "Cold Spring Elementary School",
    "city": "Doylestown",
    "lat": 40.3605,
    "lng": -75.0922,
    "district": "Central Bucks",
    "level": "elementary",
    "score": 10,
    "k8": false
  },
  {
    "id": "420531000301",
    "name": "Jamison Elementary School",
    "city": "Jamison",
    "lat": 40.2569,
    "lng": -75.0967,
    "district": "Central Bucks",
    "level": "elementary",
    "score": 9,
    "k8": false
  },
  {
    "id": "420531000539",
    "name": "Groveland Elementary School",
    "city": "Doylestown",
    "lat": 40.3605,
    "lng": -75.1428,
    "district": "Central Bucks",
    "level": "elementary",
    "score": 8,
    "k8": false
  },
  {
    "id": "420531000540",
    "name": "Mill Creek Elementary School",
    "city": "Warrington",
    "lat": 40.2652,
    "lng": -75.1665,
    "district": "Central Bucks",
    "level": "elementary",
    "score": 10,
    "k8": false
  },
  {
    "id": "420531000643",
    "name": "Tohickon Middle School",
    "city": "Doylestown",
    "lat": 40.362,
    "lng": -75.1315,
    "district": "Central Bucks",
    "level": "middle",
    "score": 7,
    "k8": false
  },
  {
    "id": "420531000785",
    "name": "Central Bucks High School-South",
    "city": "Warrington",
    "lat": 40.2626,
    "lng": -75.1614,
    "district": "Central Bucks",
    "level": "high",
    "score": 9,
    "k8": false
  },
  {
    "id": "420531000798",
    "name": "Bridge Valley Elementary School",
    "city": "Furlong",
    "lat": 40.2814,
    "lng": -75.0902,
    "district": "Central Bucks",
    "level": "elementary",
    "score": 10,
    "k8": false
  },
  {
    "id": "420531001041",
    "name": "Lenape Middle School",
    "city": "Doylestown",
    "lat": 40.30712,
    "lng": -75.14262,
    "district": "Central Bucks",
    "level": "middle",
    "score": 7,
    "k8": false
  },
  {
    "id": "420531001042",
    "name": "Tamanend Middle School",
    "city": "Warrington",
    "lat": 40.2553,
    "lng": -75.1295,
    "district": "Central Bucks",
    "level": "middle",
    "score": 6,
    "k8": false
  },
  {
    "id": "420531001043",
    "name": "Central Bucks High School-West",
    "city": "Doylestown",
    "lat": 40.30529,
    "lng": -75.13797,
    "district": "Central Bucks",
    "level": "high",
    "score": 9,
    "k8": false
  },
  {
    "id": "420531001044",
    "name": "Buckingham Elementary School",
    "city": "Buckingham",
    "lat": 40.3207,
    "lng": -75.0583,
    "district": "Central Bucks",
    "level": "elementary",
    "score": 10,
    "k8": false
  },
  {
    "id": "420531001047",
    "name": "Kutz Elementary School",
    "city": "Doylestown",
    "lat": 40.286,
    "lng": -75.1297,
    "district": "Central Bucks",
    "level": "elementary",
    "score": 10,
    "k8": false
  },
  {
    "id": "420531001048",
    "name": "Gayman Elementary School",
    "city": "Doylestown",
    "lat": 40.3569,
    "lng": -75.1285,
    "district": "Central Bucks",
    "level": "elementary",
    "score": 10,
    "k8": false
  },
  {
    "id": "420531001057",
    "name": "Linden Elementary School",
    "city": "Doylestown",
    "lat": 40.3172,
    "lng": -75.1179,
    "district": "Central Bucks",
    "level": "elementary",
    "score": 10,
    "k8": false
  },
  {
    "id": "420531001081",
    "name": "Butler Elementary School",
    "city": "Chalfont",
    "lat": 40.2694,
    "lng": -75.2114,
    "district": "Central Bucks",
    "level": "elementary",
    "score": 9,
    "k8": false
  },
  {
    "id": "420531001131",
    "name": "Titus Elementary School",
    "city": "Warrington",
    "lat": 40.2405,
    "lng": -75.1389,
    "district": "Central Bucks",
    "level": "elementary",
    "score": 9,
    "k8": false
  },
  {
    "id": "420531004678",
    "name": "Unami Middle School",
    "city": "Chalfont",
    "lat": 40.2839,
    "lng": -75.1974,
    "district": "Central Bucks",
    "level": "middle",
    "score": 9,
    "k8": false
  },
  {
    "id": "420531004683",
    "name": "Barclay Elementary School",
    "city": "Warrington",
    "lat": 40.2364,
    "lng": -75.1279,
    "district": "Central Bucks",
    "level": "elementary",
    "score": 8,
    "k8": false
  },
  {
    "id": "420531004852",
    "name": "Doyle Elementary School",
    "city": "Doylestown",
    "lat": 40.3109,
    "lng": -75.1438,
    "district": "Central Bucks",
    "level": "elementary",
    "score": 10,
    "k8": false
  },
  {
    "id": "420531005133",
    "name": "Central Bucks High School-East",
    "city": "Doylestown",
    "lat": 40.3391,
    "lng": -75.0564,
    "district": "Central Bucks",
    "level": "high",
    "score": 9,
    "k8": false
  },
  {
    "id": "420531005306",
    "name": "Pine Run Elementary School",
    "city": "New Britain",
    "lat": 40.2953,
    "lng": -75.1955,
    "district": "Central Bucks",
    "level": "elementary",
    "score": 10,
    "k8": false
  },
  {
    "id": "420531005307",
    "name": "Holicong Middle School",
    "city": "Doylestown",
    "lat": 40.3409,
    "lng": -75.0582,
    "district": "Central Bucks",
    "level": "middle",
    "score": 9,
    "k8": false
  },
  {
    "id": "420531010004",
    "name": "Warwick Elementary School",
    "city": "Jamison",
    "lat": 40.2501,
    "lng": -75.0825,
    "district": "Central Bucks",
    "level": "elementary",
    "score": 9,
    "k8": false
  },
  {
    "id": "420576003250",
    "name": "Cheltenham Elementary School",
    "city": "Cheltenham",
    "lat": 40.05961,
    "lng": -75.1081,
    "district": "Cheltenham",
    "level": "elementary",
    "score": 5,
    "k8": false
  },
  {
    "id": "420576003252",
    "name": "Myers Elementary School",
    "city": "Elkins Park",
    "lat": 40.0658,
    "lng": -75.1255,
    "district": "Cheltenham",
    "level": "elementary",
    "score": 8,
    "k8": false
  },
  {
    "id": "420576003255",
    "name": "Wyncote Elementary School",
    "city": "Wyncote",
    "lat": 40.08912,
    "lng": -75.15376,
    "district": "Cheltenham",
    "level": "elementary",
    "score": 8,
    "k8": false
  },
  {
    "id": "420576003256",
    "name": "Glenside Elementary School",
    "city": "Glenside",
    "lat": 40.09645,
    "lng": -75.16316,
    "district": "Cheltenham",
    "level": "elementary",
    "score": 8,
    "k8": false
  },
  {
    "id": "420576003257",
    "name": "Elkins Park School",
    "city": "Elkins Park",
    "lat": 40.0695,
    "lng": -75.1126,
    "district": "Cheltenham",
    "level": "other",
    "score": 4,
    "k8": false
  },
  {
    "id": "420576003260",
    "name": "Cheltenham High School",
    "city": "Wyncote",
    "lat": 40.0868,
    "lng": -75.1603,
    "district": "Cheltenham",
    "level": "high",
    "score": 5,
    "k8": false
  },
  {
    "id": "420576005250",
    "name": "Cedarbrook Middle School",
    "city": "Wyncote",
    "lat": 40.0791,
    "lng": -75.1575,
    "district": "Cheltenham",
    "level": "middle",
    "score": 3,
    "k8": false
  },
  {
    "id": "420696000172",
    "name": "Newtown Elementary School",
    "city": "Newtown",
    "lat": 40.2523,
    "lng": -74.9484,
    "district": "Council Rock",
    "level": "elementary",
    "score": 10,
    "k8": false
  },
  {
    "id": "420696000544",
    "name": "Maureen M Welch Elementary School",
    "city": "Churchville",
    "lat": 40.2037,
    "lng": -75.0373,
    "district": "Council Rock",
    "level": "elementary",
    "score": 8,
    "k8": false
  },
  {
    "id": "420696000691",
    "name": "Council Rock High School South",
    "city": "Holland",
    "lat": 40.2135,
    "lng": -74.976,
    "district": "Council Rock",
    "level": "high",
    "score": 9,
    "k8": false
  },
  {
    "id": "420696001086",
    "name": "Goodnoe Elementary School",
    "city": "Newtown",
    "lat": 40.2342,
    "lng": -74.9259,
    "district": "Council Rock",
    "level": "elementary",
    "score": 10,
    "k8": false
  },
  {
    "id": "420696001087",
    "name": "Richboro Elementary School",
    "city": "Richboro",
    "lat": 40.21021,
    "lng": -75.00399,
    "district": "Council Rock",
    "level": "elementary",
    "score": 9,
    "k8": false
  },
  {
    "id": "420696001088",
    "name": "Churchville Elementary School",
    "city": "Churchville",
    "lat": 40.1925,
    "lng": -75.0179,
    "district": "Council Rock",
    "level": "elementary",
    "score": 8,
    "k8": false
  },
  {
    "id": "420696001130",
    "name": "Sol Feinstone Elementary School",
    "city": "Newtown",
    "lat": 40.2909,
    "lng": -74.938,
    "district": "Council Rock",
    "level": "elementary",
    "score": 10,
    "k8": false
  },
  {
    "id": "420696004680",
    "name": "Holland Elementary School",
    "city": "Holland",
    "lat": 40.18361,
    "lng": -74.98502,
    "district": "Council Rock",
    "level": "elementary",
    "score": 9,
    "k8": false
  },
  {
    "id": "420696005096",
    "name": "Council Rock High School North",
    "city": "Newtown",
    "lat": 40.2314,
    "lng": -74.9453,
    "district": "Council Rock",
    "level": "high",
    "score": 10,
    "k8": false
  },
  {
    "id": "420696005308",
    "name": "Rolling Hills Elementary School",
    "city": "Holland",
    "lat": 40.20695,
    "lng": -74.96829,
    "district": "Council Rock",
    "level": "elementary",
    "score": 7,
    "k8": false
  },
  {
    "id": "420696006453",
    "name": "Newtown Middle School",
    "city": "Newtown",
    "lat": 40.2272,
    "lng": -74.9498,
    "district": "Council Rock",
    "level": "middle",
    "score": 10,
    "k8": false
  },
  {
    "id": "420696007264",
    "name": "Hillcrest Elementary School",
    "city": "Holland",
    "lat": 40.19392,
    "lng": -74.96805,
    "district": "Council Rock",
    "level": "elementary",
    "score": 10,
    "k8": false
  },
  {
    "id": "420696007656",
    "name": "Holland Middle School",
    "city": "Holland",
    "lat": 40.19396,
    "lng": -74.96954,
    "district": "Council Rock",
    "level": "middle",
    "score": 9,
    "k8": false
  },
  {
    "id": "420696007679",
    "name": "Wrightstown Elementary School",
    "city": "Wrightstown",
    "lat": 40.26644,
    "lng": -74.99289,
    "district": "Council Rock",
    "level": "elementary",
    "score": 10,
    "k8": false
  },
  {
    "id": "421087000606",
    "name": "General Wayne Elementary School",
    "city": "Malvern",
    "lat": 40.0302,
    "lng": -75.4934,
    "district": "Great Valley",
    "level": "elementary",
    "score": 10,
    "k8": false
  },
  {
    "id": "421087001368",
    "name": "Charlestown Elementary School",
    "city": "Malvern",
    "lat": 40.0802,
    "lng": -75.5439,
    "district": "Great Valley",
    "level": "elementary",
    "score": 9,
    "k8": false
  },
  {
    "id": "421087001422",
    "name": "Great Valley Middle School",
    "city": "Malvern",
    "lat": 40.0591,
    "lng": -75.5646,
    "district": "Great Valley",
    "level": "middle",
    "score": 8,
    "k8": false
  },
  {
    "id": "421087001424",
    "name": "Great Valley High School",
    "city": "Malvern",
    "lat": 40.0564,
    "lng": -75.5674,
    "district": "Great Valley",
    "level": "high",
    "score": 8,
    "k8": false
  },
  {
    "id": "421087001461",
    "name": "Sugartown Elementary School",
    "city": "Malvern",
    "lat": 40.0182,
    "lng": -75.5189,
    "district": "Great Valley",
    "level": "elementary",
    "score": 8,
    "k8": false
  },
  {
    "id": "421087006479",
    "name": "Kathryn D. Markley Elementary School",
    "city": "Malvern",
    "lat": 40.0436,
    "lng": -75.5567,
    "district": "Great Valley",
    "level": "elementary",
    "score": 9,
    "k8": false
  },
  {
    "id": "421161003270",
    "name": "Simmons Elementary School",
    "city": "Horsham",
    "lat": 40.1972,
    "lng": -75.1639,
    "district": "Hatboro-Horsham",
    "level": "elementary",
    "score": 9,
    "k8": false
  },
  {
    "id": "421161003271",
    "name": "Hallowell Elementary School",
    "city": "Horsham",
    "lat": 40.19447,
    "lng": -75.13617,
    "district": "Hatboro-Horsham",
    "level": "elementary",
    "score": 7,
    "k8": false
  },
  {
    "id": "421161003272",
    "name": "Hatboro-Horsham Senior High School",
    "city": "Horsham",
    "lat": 40.19722,
    "lng": -75.1637,
    "district": "Hatboro-Horsham",
    "level": "high",
    "score": 5,
    "k8": false
  },
  {
    "id": "421161005079",
    "name": "Blair Mill Elementary",
    "city": "Hatboro",
    "lat": 40.1883,
    "lng": -75.114,
    "district": "Hatboro-Horsham",
    "level": "elementary",
    "score": 7,
    "k8": false
  },
  {
    "id": "421161006639",
    "name": "Keith Valley Middle School",
    "city": "Horsham",
    "lat": 40.18594,
    "lng": -75.12701,
    "district": "Hatboro-Horsham",
    "level": "middle",
    "score": 6,
    "k8": false
  },
  {
    "id": "421161007692",
    "name": "Crooked Billet Elementary School",
    "city": "Hatboro",
    "lat": 40.18448,
    "lng": -75.09937,
    "district": "Hatboro-Horsham",
    "level": "elementary",
    "score": 6,
    "k8": false
  },
  {
    "id": "421167001871",
    "name": "Chatham Park Elementary School",
    "city": "Havertown",
    "lat": 39.9759,
    "lng": -75.2983,
    "district": "Haverford Township",
    "level": "elementary",
    "score": 10,
    "k8": false
  },
  {
    "id": "421167001874",
    "name": "Lynnewood Elementary School",
    "city": "Havertown",
    "lat": 39.98269,
    "lng": -75.32231,
    "district": "Haverford Township",
    "level": "elementary",
    "score": 9,
    "k8": false
  },
  {
    "id": "421167001875",
    "name": "Manoa Elementary School",
    "city": "Havertown",
    "lat": 39.9687,
    "lng": -75.32,
    "district": "Haverford Township",
    "level": "elementary",
    "score": 10,
    "k8": false
  },
  {
    "id": "421167001876",
    "name": "Chestnutwold Elementary School",
    "city": "Ardmore",
    "lat": 39.9974,
    "lng": -75.3,
    "district": "Haverford Township",
    "level": "elementary",
    "score": 10,
    "k8": false
  },
  {
    "id": "421167001877",
    "name": "Coopertown Elementary School",
    "city": "Bryn Mawr",
    "lat": 40.0094,
    "lng": -75.3281,
    "district": "Haverford Township",
    "level": "elementary",
    "score": 10,
    "k8": false
  },
  {
    "id": "421167001878",
    "name": "Haverford Middle School",
    "city": "Havertown",
    "lat": 39.9835,
    "lng": -75.3055,
    "district": "Haverford Township",
    "level": "middle",
    "score": 9,
    "k8": false
  },
  {
    "id": "421167001879",
    "name": "Haverford Senior High School",
    "city": "Havertown",
    "lat": 39.9838,
    "lng": -75.3014,
    "district": "Haverford Township",
    "level": "high",
    "score": 9,
    "k8": false
  },
  {
    "id": "421242003276",
    "name": "Jenkintown Elementary School",
    "city": "Jenkintown",
    "lat": 40.09547,
    "lng": -75.13321,
    "district": "Jenkintown",
    "level": "elementary",
    "score": 9,
    "k8": false
  },
  {
    "id": "421242007327",
    "name": "Jenkintown Middle/High School",
    "city": "Jenkintown",
    "lat": 40.09547,
    "lng": -75.13321,
    "district": "Jenkintown",
    "level": "high",
    "score": 9,
    "k8": false
  },
  {
    "id": "421416000482",
    "name": "Belmont Hills Elementary School",
    "city": "Bala Cynwyd",
    "lat": 40.0231,
    "lng": -75.2374,
    "district": "Lower Merion",
    "level": "elementary",
    "score": 10,
    "k8": false
  },
  {
    "id": "421416003286",
    "name": "Cynwyd School",
    "city": "Bala Cynwyd",
    "lat": 40.0121,
    "lng": -75.242,
    "district": "Lower Merion",
    "level": "other",
    "score": 10,
    "k8": false
  },
  {
    "id": "421416003287",
    "name": "Merion Elementary School",
    "city": "Merion Station",
    "lat": 40.0014,
    "lng": -75.2563,
    "district": "Lower Merion",
    "level": "elementary",
    "score": 10,
    "k8": false
  },
  {
    "id": "421416003288",
    "name": "Penn Valley School",
    "city": "Narberth",
    "lat": 40.0216,
    "lng": -75.2646,
    "district": "Lower Merion",
    "level": "other",
    "score": 10,
    "k8": false
  },
  {
    "id": "421416003289",
    "name": "Penn Wynne School",
    "city": "Wynnewood",
    "lat": 39.9871,
    "lng": -75.2783,
    "district": "Lower Merion",
    "level": "other",
    "score": 10,
    "k8": false
  },
  {
    "id": "421416003291",
    "name": "Gladwyne School",
    "city": "Gladwyne",
    "lat": 40.034,
    "lng": -75.279,
    "district": "Lower Merion",
    "level": "other",
    "score": 10,
    "k8": false
  },
  {
    "id": "421416003293",
    "name": "Bala-Cynwyd Middle School",
    "city": "Bala Cynwyd",
    "lat": 40.0135,
    "lng": -75.243,
    "district": "Lower Merion",
    "level": "middle",
    "score": 10,
    "k8": false
  },
  {
    "id": "421416003294",
    "name": "Welsh Valley Middle School",
    "city": "Narberth",
    "lat": 40.0291,
    "lng": -75.2553,
    "district": "Lower Merion",
    "level": "middle",
    "score": 10,
    "k8": false
  },
  {
    "id": "421416003295",
    "name": "Lower Merion High School",
    "city": "Ardmore",
    "lat": 40.0102,
    "lng": -75.2798,
    "district": "Lower Merion",
    "level": "high",
    "score": 10,
    "k8": false
  },
  {
    "id": "421416003296",
    "name": "Harriton Senior High School",
    "city": "Rosemont",
    "lat": 40.04273,
    "lng": -75.31691,
    "district": "Lower Merion",
    "level": "high",
    "score": 10,
    "k8": false
  },
  {
    "id": "421416010025",
    "name": "Black Rock Middle School",
    "city": "Villanova",
    "lat": 40.0489,
    "lng": -75.33993,
    "district": "Lower Merion",
    "level": "middle",
    "score": 10,
    "k8": false
  },
  {
    "id": "421419003297",
    "name": "Pine Road Elementary School",
    "city": "Huntingdon Valley",
    "lat": 40.1384,
    "lng": -75.0291,
    "district": "Lower Moreland Township",
    "level": "elementary",
    "score": 10,
    "k8": false
  },
  {
    "id": "421419004960",
    "name": "Lower Moreland High School",
    "city": "Huntingdon Valley",
    "lat": 40.12386,
    "lng": -75.05813,
    "district": "Lower Moreland Township",
    "level": "high",
    "score": 8,
    "k8": false
  },
  {
    "id": "421419007282",
    "name": "Murray Avenue School",
    "city": "Huntingdon Valley",
    "lat": 40.1223,
    "lng": -75.0621,
    "district": "Lower Moreland Township",
    "level": "other",
    "score": 9,
    "k8": false
  },
  {
    "id": "421425000483",
    "name": "Worcester Elementary School",
    "city": "Lansdale",
    "lat": 40.2033,
    "lng": -75.3468,
    "district": "Methacton",
    "level": "elementary",
    "score": 10,
    "k8": false
  },
  {
    "id": "421425003303",
    "name": "Eagleville Elementary School",
    "city": "Eagleville",
    "lat": 40.1647,
    "lng": -75.4046,
    "district": "Methacton",
    "level": "elementary",
    "score": 8,
    "k8": false
  },
  {
    "id": "421425003305",
    "name": "Methacton High School",
    "city": "Eagleville",
    "lat": 40.1756,
    "lng": -75.3978,
    "district": "Methacton",
    "level": "high",
    "score": 7,
    "k8": false
  },
  {
    "id": "421425005252",
    "name": "Woodland Elementary School",
    "city": "Norristown",
    "lat": 40.1362,
    "lng": -75.4054,
    "district": "Methacton",
    "level": "elementary",
    "score": 10,
    "k8": false
  },
  {
    "id": "421425006716",
    "name": "Arcola Intermediate School",
    "city": "Eagleville",
    "lat": 40.1486,
    "lng": -75.4239,
    "district": "Methacton",
    "level": "middle",
    "score": 7,
    "k8": false
  },
  {
    "id": "421425006845",
    "name": "Arrowhead Elementary School",
    "city": "Collegeville",
    "lat": 40.1631,
    "lng": -75.4501,
    "district": "Methacton",
    "level": "elementary",
    "score": 10,
    "k8": false
  },
  {
    "id": "421425007347",
    "name": "Skyview Upper Elementary School",
    "city": "Eagleville",
    "lat": 40.14883,
    "lng": -75.42346,
    "district": "Methacton",
    "level": "elementary",
    "score": 6,
    "k8": false
  },
  {
    "id": "421476001894",
    "name": "Russell Elementary School",
    "city": "Broomall",
    "lat": 39.9718,
    "lng": -75.3605,
    "district": "Marple Newtown",
    "level": "elementary",
    "score": 9,
    "k8": false
  },
  {
    "id": "421476001896",
    "name": "Worrall Elementary School",
    "city": "Broomall",
    "lat": 39.97651,
    "lng": -75.38038,
    "district": "Marple Newtown",
    "level": "elementary",
    "score": 10,
    "k8": false
  },
  {
    "id": "421476001898",
    "name": "Culbertson Elementary School",
    "city": "Newtown Square",
    "lat": 39.99635,
    "lng": -75.40278,
    "district": "Marple Newtown",
    "level": "elementary",
    "score": 9,
    "k8": false
  },
  {
    "id": "421476001899",
    "name": "Loomis Elementary School",
    "city": "Broomall",
    "lat": 39.9641,
    "lng": -75.3452,
    "district": "Marple Newtown",
    "level": "elementary",
    "score": 9,
    "k8": false
  },
  {
    "id": "421476001901",
    "name": "Paxon Hollow Middle School",
    "city": "Broomall",
    "lat": 39.9574,
    "lng": -75.3641,
    "district": "Marple Newtown",
    "level": "middle",
    "score": 7,
    "k8": false
  },
  {
    "id": "421476001902",
    "name": "Marple Newtown Senior High School",
    "city": "Newtown Square",
    "lat": 39.9801,
    "lng": -75.3858,
    "district": "Marple Newtown",
    "level": "high",
    "score": 6,
    "k8": false
  },
  {
    "id": "421641000103",
    "name": "Maple Point Middle School",
    "city": "Langhorne",
    "lat": 40.206,
    "lng": -74.8985,
    "district": "Neshaminy",
    "level": "middle",
    "score": 4,
    "k8": false
  },
  {
    "id": "421641001069",
    "name": "Joseph E Ferderbar Elementary School",
    "city": "Feasterville",
    "lat": 40.1503,
    "lng": -74.9942,
    "district": "Neshaminy",
    "level": "elementary",
    "score": 8,
    "k8": false
  },
  {
    "id": "421641001071",
    "name": "Miller Elementary School",
    "city": "Levittown",
    "lat": 40.1458,
    "lng": -74.8733,
    "district": "Neshaminy",
    "level": "elementary",
    "score": 9,
    "k8": false
  },
  {
    "id": "421641001072",
    "name": "Schweitzer Elementary School",
    "city": "Levittown",
    "lat": 40.1644,
    "lng": -74.8862,
    "district": "Neshaminy",
    "level": "elementary",
    "score": 8,
    "k8": false
  },
  {
    "id": "421641001076",
    "name": "Sandburg Middle School",
    "city": "Levittown",
    "lat": 40.1653,
    "lng": -74.8846,
    "district": "Neshaminy",
    "level": "middle",
    "score": 3,
    "k8": false
  },
  {
    "id": "421641001077",
    "name": "Poquessing Middle School",
    "city": "Feasterville Trevose",
    "lat": 40.1513,
    "lng": -74.9956,
    "district": "Neshaminy",
    "level": "middle",
    "score": 4,
    "k8": false
  },
  {
    "id": "421641005154",
    "name": "Buck Elementary School",
    "city": "Levittown",
    "lat": 40.1766,
    "lng": -74.8746,
    "district": "Neshaminy",
    "level": "elementary",
    "score": 9,
    "k8": false
  },
  {
    "id": "421641006455",
    "name": "Neshaminy High School",
    "city": "Langhorne",
    "lat": 40.1578,
    "lng": -74.94886,
    "district": "Neshaminy",
    "level": "high",
    "score": 5,
    "k8": false
  },
  {
    "id": "421641007161",
    "name": "Hoover Elementary School",
    "city": "Langhorne",
    "lat": 40.1475,
    "lng": -74.9031,
    "district": "Neshaminy",
    "level": "elementary",
    "score": 8,
    "k8": false
  },
  {
    "id": "421641007604",
    "name": "Tawanka Elementary School",
    "city": "Langhorne",
    "lat": 40.15677,
    "lng": -74.96719,
    "district": "Neshaminy",
    "level": "elementary",
    "score": 8,
    "k8": false
  },
  {
    "id": "421686000381",
    "name": "New Hope-Solebury Middle School",
    "city": "New Hope",
    "lat": 40.3668,
    "lng": -74.9586,
    "district": "New Hope-Solebury",
    "level": "middle",
    "score": 9,
    "k8": false
  },
  {
    "id": "421686000851",
    "name": "New Hope-Solebury Upper Elementary School",
    "city": "New Hope",
    "lat": 40.3678,
    "lng": -74.9589,
    "district": "New Hope-Solebury",
    "level": "elementary",
    "score": 9,
    "k8": false
  },
  {
    "id": "421686001082",
    "name": "New Hope-Solebury Lower Elementary School",
    "city": "Solebury",
    "lat": 40.3824,
    "lng": -75.0093,
    "district": "New Hope-Solebury",
    "level": "elementary",
    "score": 9,
    "k8": false
  },
  {
    "id": "421686001084",
    "name": "New Hope-Solebury High School",
    "city": "New Hope",
    "lat": 40.3655,
    "lng": -74.9589,
    "district": "New Hope-Solebury",
    "level": "high",
    "score": 9,
    "k8": false
  },
  {
    "id": "421698000047",
    "name": "Whitehall Elementary School",
    "city": "Norristown",
    "lat": 40.14409,
    "lng": -75.3604,
    "district": "Norristown Area",
    "level": "elementary",
    "score": 3,
    "k8": false
  },
  {
    "id": "421698003263",
    "name": "Cole Manor Elementary School",
    "city": "Norristown",
    "lat": 40.1363,
    "lng": -75.32418,
    "district": "Norristown Area",
    "level": "elementary",
    "score": 4,
    "k8": false
  },
  {
    "id": "421698003265",
    "name": "East Norriton Middle School",
    "city": "Norristown",
    "lat": 40.15361,
    "lng": -75.32041,
    "district": "Norristown Area",
    "level": "middle",
    "score": 2,
    "k8": false
  },
  {
    "id": "421698003318",
    "name": "Hancock Elementary School",
    "city": "Norristown",
    "lat": 40.12267,
    "lng": -75.32858,
    "district": "Norristown Area",
    "level": "elementary",
    "score": 3,
    "k8": false
  },
  {
    "id": "421698003320",
    "name": "Blockson Middle School",
    "city": "Norristown",
    "lat": 40.12627,
    "lng": -75.35843,
    "district": "Norristown Area",
    "level": "middle",
    "score": 1,
    "k8": false
  },
  {
    "id": "421698003321",
    "name": "Eisenhower Middle School",
    "city": "Norristown",
    "lat": 40.13055,
    "lng": -75.33618,
    "district": "Norristown Area",
    "level": "middle",
    "score": 1,
    "k8": false
  },
  {
    "id": "421698003408",
    "name": "Marshall Street Elementary School",
    "city": "Norristown",
    "lat": 40.12851,
    "lng": -75.36249,
    "district": "Norristown Area",
    "level": "elementary",
    "score": 3,
    "k8": false
  },
  {
    "id": "421698005080",
    "name": "Davenport Elementary School",
    "city": "Norristown",
    "lat": 40.11919,
    "lng": -75.34116,
    "district": "Norristown Area",
    "level": "elementary",
    "score": 4,
    "k8": false
  },
  {
    "id": "421698005253",
    "name": "Paul V Fly Elementary School",
    "city": "Norristown",
    "lat": 40.1577,
    "lng": -75.35941,
    "district": "Norristown Area",
    "level": "elementary",
    "score": 6,
    "k8": false
  },
  {
    "id": "421698006729",
    "name": "Norristown Area High School",
    "city": "Norristown",
    "lat": 40.147,
    "lng": -75.36103,
    "district": "Norristown Area",
    "level": "high",
    "score": 1,
    "k8": false
  },
  {
    "id": "421698007146",
    "name": "Roosevelt Campus of the Norristown Area High School",
    "city": "Norristown",
    "lat": 40.12465,
    "lng": -75.34144,
    "district": "Norristown Area",
    "level": "high",
    "score": 1,
    "k8": false
  },
  {
    "id": "421698007528",
    "name": "Ray S. Musselman Learning Center",
    "city": "Norristown",
    "lat": 40.11317,
    "lng": -75.32304,
    "district": "Norristown Area",
    "level": "other",
    "score": null,
    "k8": false
  },
  {
    "id": "421728000133",
    "name": "Bridle Path Elementary School",
    "city": "Lansdale",
    "lat": 40.2589,
    "lng": -75.2535,
    "district": "North Penn",
    "level": "elementary",
    "score": 9,
    "k8": false
  },
  {
    "id": "421728000134",
    "name": "Walton Farm Elementary School",
    "city": "Lansdale",
    "lat": 40.2549,
    "lng": -75.3241,
    "district": "North Penn",
    "level": "elementary",
    "score": 9,
    "k8": false
  },
  {
    "id": "421728003275",
    "name": "Kulp Elementary School",
    "city": "Hatfield",
    "lat": 40.2671,
    "lng": -75.2771,
    "district": "North Penn",
    "level": "elementary",
    "score": 7,
    "k8": false
  },
  {
    "id": "421728003278",
    "name": "York Avenue Elementary School",
    "city": "Lansdale",
    "lat": 40.2444,
    "lng": -75.2958,
    "district": "North Penn",
    "level": "elementary",
    "score": 9,
    "k8": false
  },
  {
    "id": "421728003280",
    "name": "Oak Park Elementary School",
    "city": "Lansdale",
    "lat": 40.2547,
    "lng": -75.2956,
    "district": "North Penn",
    "level": "elementary",
    "score": 5,
    "k8": false
  },
  {
    "id": "421728003309",
    "name": "Knapp Elementary School",
    "city": "Lansdale",
    "lat": 40.2383,
    "lng": -75.2638,
    "district": "North Penn",
    "level": "elementary",
    "score": 7,
    "k8": false
  },
  {
    "id": "421728003322",
    "name": "Pennbrook Middle School",
    "city": "North Wales",
    "lat": 40.2208,
    "lng": -75.2688,
    "district": "North Penn",
    "level": "middle",
    "score": 8,
    "k8": false
  },
  {
    "id": "421728003323",
    "name": "Pennfield Middle School",
    "city": "Hatfield",
    "lat": 40.273,
    "lng": -75.3114,
    "district": "North Penn",
    "level": "middle",
    "score": 6,
    "k8": false
  },
  {
    "id": "421728003324",
    "name": "Penndale Middle School",
    "city": "Lansdale",
    "lat": 40.2356,
    "lng": -75.2792,
    "district": "North Penn",
    "level": "middle",
    "score": 4,
    "k8": false
  },
  {
    "id": "421728003325",
    "name": "North Wales Elementary School",
    "city": "North Wales",
    "lat": 40.2103,
    "lng": -75.2713,
    "district": "North Penn",
    "level": "elementary",
    "score": 9,
    "k8": false
  },
  {
    "id": "421728003379",
    "name": "Inglewood Elementary School",
    "city": "Lansdale",
    "lat": 40.2493,
    "lng": -75.3057,
    "district": "North Penn",
    "level": "elementary",
    "score": 8,
    "k8": false
  },
  {
    "id": "421728004831",
    "name": "Gwyn-Nor Elementary School",
    "city": "North Wales",
    "lat": 40.2215,
    "lng": -75.2632,
    "district": "North Penn",
    "level": "elementary",
    "score": 8,
    "k8": false
  },
  {
    "id": "421728005344",
    "name": "Hatfield Elementary School",
    "city": "Hatfield",
    "lat": 40.2796,
    "lng": -75.3068,
    "district": "North Penn",
    "level": "elementary",
    "score": 5,
    "k8": false
  },
  {
    "id": "421728005345",
    "name": "North Penn Senior High School",
    "city": "Lansdale",
    "lat": 40.2353,
    "lng": -75.3154,
    "district": "North Penn",
    "level": "high",
    "score": 7,
    "k8": false
  },
  {
    "id": "421728006907",
    "name": "General Nash Elementary School",
    "city": "Harleysville",
    "lat": 40.2352,
    "lng": -75.347,
    "district": "North Penn",
    "level": "elementary",
    "score": 9,
    "k8": false
  },
  {
    "id": "421728007173",
    "name": "Montgomery Elementary School",
    "city": "North Wales",
    "lat": 40.246,
    "lng": -75.2155,
    "district": "North Penn",
    "level": "elementary",
    "score": 10,
    "k8": false
  },
  {
    "id": "421728010006",
    "name": "Gwynedd Square Elementary School",
    "city": "Lansdale",
    "lat": 40.2224,
    "lng": -75.3093,
    "district": "North Penn",
    "level": "elementary",
    "score": 10,
    "k8": false
  },
  {
    "id": "421833001091",
    "name": "Springfield Elementary School",
    "city": "Quakertown",
    "lat": 40.5223,
    "lng": -75.2924,
    "district": "Palisades",
    "level": "elementary",
    "score": 10,
    "k8": false
  },
  {
    "id": "421833001094",
    "name": "Palisades High School",
    "city": "Kintnersville",
    "lat": 40.5208,
    "lng": -75.1979,
    "district": "Palisades",
    "level": "high",
    "score": 5,
    "k8": false
  },
  {
    "id": "421833006456",
    "name": "Tinicum Elementary School",
    "city": "Pipersville",
    "lat": 40.4711,
    "lng": -75.0924,
    "district": "Palisades",
    "level": "elementary",
    "score": 10,
    "k8": false
  },
  {
    "id": "421833007221",
    "name": "Durham-Nockamixon Elementary School",
    "city": "Kintnersville",
    "lat": 40.5229,
    "lng": -75.1995,
    "district": "Palisades",
    "level": "elementary",
    "score": 9,
    "k8": false
  },
  {
    "id": "421833010005",
    "name": "Palisades Middle School",
    "city": "Kintnersville",
    "lat": 40.5223,
    "lng": -75.2055,
    "district": "Palisades",
    "level": "middle",
    "score": 5,
    "k8": false
  },
  {
    "id": "421875001052",
    "name": "Seylar Elementary School",
    "city": "Perkasie",
    "lat": 40.3538,
    "lng": -75.253,
    "district": "Pennridge",
    "level": "elementary",
    "score": 9,
    "k8": false
  },
  {
    "id": "421875001053",
    "name": "Bedminster Elementary School",
    "city": "Perkasie",
    "lat": 40.4227,
    "lng": -75.1949,
    "district": "Pennridge",
    "level": "elementary",
    "score": 10,
    "k8": false
  },
  {
    "id": "421875001054",
    "name": "Deibler Elementary School",
    "city": "Perkasie",
    "lat": 40.3998,
    "lng": -75.2762,
    "district": "Pennridge",
    "level": "elementary",
    "score": 9,
    "k8": false
  },
  {
    "id": "421875001055",
    "name": "Grasse Elementary School",
    "city": "Sellersville",
    "lat": 40.3237,
    "lng": -75.2623,
    "district": "Pennridge",
    "level": "elementary",
    "score": 9,
    "k8": false
  },
  {
    "id": "421875001097",
    "name": "Patricia A Guth Elementary School",
    "city": "Perkasie",
    "lat": 40.3791,
    "lng": -75.2881,
    "district": "Pennridge",
    "level": "elementary",
    "score": 8,
    "k8": false
  },
  {
    "id": "421875001098",
    "name": "Sellersville Elementary School",
    "city": "Sellersville",
    "lat": 40.3499,
    "lng": -75.3068,
    "district": "Pennridge",
    "level": "elementary",
    "score": 10,
    "k8": false
  },
  {
    "id": "421875001099",
    "name": "Pennridge South Middle School",
    "city": "Perkasie",
    "lat": 40.3664,
    "lng": -75.3055,
    "district": "Pennridge",
    "level": "middle",
    "score": 5,
    "k8": false
  },
  {
    "id": "421875001100",
    "name": "Pennridge High School",
    "city": "Perkasie",
    "lat": 40.38781,
    "lng": -75.27552,
    "district": "Pennridge",
    "level": "high",
    "score": 6,
    "k8": false
  },
  {
    "id": "421875004681",
    "name": "Pennridge Central Middle School",
    "city": "Perkasie",
    "lat": 40.3476,
    "lng": -75.2767,
    "district": "Pennridge",
    "level": "middle",
    "score": 7,
    "k8": false
  },
  {
    "id": "421875006093",
    "name": "Pennridge North Middle School",
    "city": "Perkasie",
    "lat": 40.3898,
    "lng": -75.2712,
    "district": "Pennridge",
    "level": "middle",
    "score": 8,
    "k8": false
  },
  {
    "id": "421875009958",
    "name": "West Rockhill Elementary School",
    "city": "Sellersville",
    "lat": 40.3676,
    "lng": -75.3257,
    "district": "Pennridge",
    "level": "elementary",
    "score": 9,
    "k8": false
  },
  {
    "id": "421893000232",
    "name": "Evergreen Elementary School",
    "city": "Collegeville",
    "lat": 40.21831,
    "lng": -75.46213,
    "district": "Perkiomen Valley",
    "level": "elementary",
    "score": 10,
    "k8": false
  },
  {
    "id": "421893000382",
    "name": "Skippack Elementary School",
    "city": "Collegeville",
    "lat": 40.2183,
    "lng": -75.4194,
    "district": "Perkiomen Valley",
    "level": "elementary",
    "score": 10,
    "k8": false
  },
  {
    "id": "421893000727",
    "name": "Schwenksville Elementary School",
    "city": "Schwenksville",
    "lat": 40.24992,
    "lng": -75.46431,
    "district": "Perkiomen Valley",
    "level": "elementary",
    "score": 8,
    "k8": false
  },
  {
    "id": "421893000796",
    "name": "Perkiomen Valley Middle School-West",
    "city": "Zieglerville",
    "lat": 40.27772,
    "lng": -75.49618,
    "district": "Perkiomen Valley",
    "level": "middle",
    "score": 7,
    "k8": false
  },
  {
    "id": "421893003326",
    "name": "Perkiomen Valley Middle School-East",
    "city": "Collegeville",
    "lat": 40.22023,
    "lng": -75.46345,
    "district": "Perkiomen Valley",
    "level": "middle",
    "score": 8,
    "k8": false
  },
  {
    "id": "421893003327",
    "name": "South Elementary School",
    "city": "Trappe",
    "lat": 40.2005,
    "lng": -75.4653,
    "district": "Perkiomen Valley",
    "level": "elementary",
    "score": 10,
    "k8": false
  },
  {
    "id": "421893003328",
    "name": "Perkiomen Valley High School",
    "city": "Collegeville",
    "lat": 40.2193,
    "lng": -75.4565,
    "district": "Perkiomen Valley",
    "level": "high",
    "score": 8,
    "k8": false
  },
  {
    "id": "421899000054",
    "name": "Feltonville School of Arts & Sciences",
    "city": "Philadelphia",
    "lat": 40.0194,
    "lng": -75.1219,
    "district": "Philadelphia City",
    "level": "other",
    "score": 1,
    "k8": false
  },
  {
    "id": "421899000105",
    "name": "Cayuga School",
    "city": "Philadelphia",
    "lat": 40.0178,
    "lng": -75.1351,
    "district": "Philadelphia City",
    "level": "other",
    "score": 1,
    "k8": false
  },
  {
    "id": "421899000237",
    "name": "Overbrook Elementary School",
    "city": "Philadelphia",
    "lat": 39.98192,
    "lng": -75.24555,
    "district": "Philadelphia City",
    "level": "elementary",
    "score": 2,
    "k8": true
  },
  {
    "id": "421899000329",
    "name": "Marshall Thurgood",
    "city": "Philadelphia",
    "lat": 40.0301,
    "lng": -75.1345,
    "district": "Philadelphia City",
    "level": "other",
    "score": 1,
    "k8": true
  },
  {
    "id": "421899000331",
    "name": "Munoz-Marin Luis",
    "city": "Philadelphia",
    "lat": 40.00183,
    "lng": -75.13538,
    "district": "Philadelphia City",
    "level": "other",
    "score": 1,
    "k8": true
  },
  {
    "id": "421899000549",
    "name": "Washington Grover Jr School",
    "city": "Philadelphia",
    "lat": 40.0354,
    "lng": -75.1179,
    "district": "Philadelphia City",
    "level": "middle",
    "score": 1,
    "k8": false
  },
  {
    "id": "421899000551",
    "name": "Gamp",
    "city": "Philadelphia",
    "lat": 39.9221,
    "lng": -75.1831,
    "district": "Philadelphia City",
    "level": "other",
    "score": 8,
    "k8": false
  },
  {
    "id": "421899000572",
    "name": "Swenson Arts and Technology High School",
    "city": "Philadelphia",
    "lat": 40.0923,
    "lng": -75.0143,
    "district": "Philadelphia City",
    "level": "high",
    "score": 2,
    "k8": false
  },
  {
    "id": "421899000619",
    "name": "Penn Alexander School",
    "city": "Philadelphia",
    "lat": 39.9532,
    "lng": -75.2082,
    "district": "Philadelphia City",
    "level": "other",
    "score": 10,
    "k8": true
  },
  {
    "id": "421899000765",
    "name": "Robeson High School for Human Services",
    "city": "Philadelphia",
    "lat": 39.957,
    "lng": -75.2057,
    "district": "Philadelphia City",
    "level": "high",
    "score": 3,
    "k8": false
  },
  {
    "id": "421899000771",
    "name": "Parkway Center City Middle College",
    "city": "Philadelphia",
    "lat": 39.96292,
    "lng": -75.15952,
    "district": "Philadelphia City",
    "level": "middle",
    "score": 8,
    "k8": false
  },
  {
    "id": "421899000821",
    "name": "Parkway West",
    "city": "Philadelphia",
    "lat": 39.96473,
    "lng": -75.21588,
    "district": "Philadelphia City",
    "level": "other",
    "score": 1,
    "k8": false
  },
  {
    "id": "421899000824",
    "name": "Lankenau High School",
    "city": "Philadelphia",
    "lat": 40.0624,
    "lng": -75.2526,
    "district": "Philadelphia City",
    "level": "high",
    "score": 3,
    "k8": false
  },
  {
    "id": "421899000826",
    "name": "Randolph A. Philip Area Vocational-Technical High School",
    "city": "Philadelphia",
    "lat": 40.009,
    "lng": -75.1792,
    "district": "Philadelphia City",
    "level": "high",
    "score": 1,
    "k8": false
  },
  {
    "id": "421899000830",
    "name": "Motivation High School",
    "city": "Philadelphia",
    "lat": 39.9446,
    "lng": -75.24263,
    "district": "Philadelphia City",
    "level": "high",
    "score": 1,
    "k8": false
  },
  {
    "id": "421899000899",
    "name": "Philadelphia Military Academy at Elverson",
    "city": "Philadelphia",
    "lat": 39.9857,
    "lng": -75.1544,
    "district": "Philadelphia City",
    "level": "other",
    "score": 1,
    "k8": false
  },
  {
    "id": "421899000901",
    "name": "Kensington Creative & Performing Arts High School",
    "city": "Philadelphia",
    "lat": 39.9778,
    "lng": -75.1333,
    "district": "Philadelphia City",
    "level": "high",
    "score": 1,
    "k8": false
  },
  {
    "id": "421899000907",
    "name": "Kensington Health Sciences",
    "city": "Philadelphia",
    "lat": 39.9846,
    "lng": -75.1282,
    "district": "Philadelphia City",
    "level": "other",
    "score": 2,
    "k8": false
  },
  {
    "id": "421899000923",
    "name": "Science Leadership Academy",
    "city": "Philadelphia",
    "lat": 39.96447,
    "lng": -75.16231,
    "district": "Philadelphia City",
    "level": "other",
    "score": 3,
    "k8": false
  },
  {
    "id": "421899000962",
    "name": "Academy at Palumbo",
    "city": "Philadelphia",
    "lat": 39.94,
    "lng": -75.1618,
    "district": "Philadelphia City",
    "level": "other",
    "score": 10,
    "k8": false
  },
  {
    "id": "421899000993",
    "name": "School of the Future",
    "city": "Philadelphia",
    "lat": 39.9753,
    "lng": -75.2035,
    "district": "Philadelphia City",
    "level": "other",
    "score": 1,
    "k8": false
  },
  {
    "id": "421899001010",
    "name": "National Constitution Center High School",
    "city": "Philadelphia",
    "lat": 39.9503,
    "lng": -75.1524,
    "district": "Philadelphia City",
    "level": "high",
    "score": 3,
    "k8": false
  },
  {
    "id": "421899003601",
    "name": "Bryant William C School",
    "city": "Philadelphia",
    "lat": 39.9528,
    "lng": -75.2434,
    "district": "Philadelphia City",
    "level": "other",
    "score": 1,
    "k8": true
  },
  {
    "id": "421899003602",
    "name": "Catharine Joseph School",
    "city": "Philadelphia",
    "lat": 39.9276,
    "lng": -75.2397,
    "district": "Philadelphia City",
    "level": "other",
    "score": 2,
    "k8": false
  },
  {
    "id": "421899003611",
    "name": "McMichael Morton School",
    "city": "Philadelphia",
    "lat": 39.9663,
    "lng": -75.1945,
    "district": "Philadelphia City",
    "level": "other",
    "score": 1,
    "k8": true
  },
  {
    "id": "421899003613",
    "name": "Patterson John M School",
    "city": "Philadelphia",
    "lat": 39.9161,
    "lng": -75.2368,
    "district": "Philadelphia City",
    "level": "other",
    "score": 2,
    "k8": false
  },
  {
    "id": "421899003614",
    "name": "Rhoads James School",
    "city": "Philadelphia",
    "lat": 39.9673,
    "lng": -75.22,
    "district": "Philadelphia City",
    "level": "other",
    "score": 1,
    "k8": true
  },
  {
    "id": "421899003615",
    "name": "Washington Martha School",
    "city": "Philadelphia",
    "lat": 39.9658,
    "lng": -75.2114,
    "district": "Philadelphia City",
    "level": "other",
    "score": 2,
    "k8": true
  },
  {
    "id": "421899003616",
    "name": "Penrose School",
    "city": "Philadelphia",
    "lat": 39.9075,
    "lng": -75.2484,
    "district": "Philadelphia City",
    "level": "other",
    "score": 2,
    "k8": true
  },
  {
    "id": "421899003618",
    "name": "Bache-Martin School",
    "city": "Philadelphia",
    "lat": 39.9698,
    "lng": -75.1735,
    "district": "Philadelphia City",
    "level": "other",
    "score": 3,
    "k8": true
  },
  {
    "id": "421899003620",
    "name": "Bregy F Amedee School",
    "city": "Philadelphia",
    "lat": 39.91457,
    "lng": -75.17674,
    "district": "Philadelphia City",
    "level": "other",
    "score": 2,
    "k8": true
  },
  {
    "id": "421899003622",
    "name": "Childs George W School",
    "city": "Philadelphia",
    "lat": 39.9316,
    "lng": -75.1728,
    "district": "Philadelphia City",
    "level": "other",
    "score": 2,
    "k8": true
  },
  {
    "id": "421899003625",
    "name": "Gideon Edward School",
    "city": "Philadelphia",
    "lat": 39.9843,
    "lng": -75.1808,
    "district": "Philadelphia City",
    "level": "other",
    "score": 1,
    "k8": true
  },
  {
    "id": "421899003626",
    "name": "Kelley William D School",
    "city": "Philadelphia",
    "lat": 39.9804,
    "lng": -75.1801,
    "district": "Philadelphia City",
    "level": "other",
    "score": 1,
    "k8": true
  },
  {
    "id": "421899003629",
    "name": "McDaniel Delaplaine School",
    "city": "Philadelphia",
    "lat": 39.9295,
    "lng": -75.1814,
    "district": "Philadelphia City",
    "level": "other",
    "score": 1,
    "k8": true
  },
  {
    "id": "421899003630",
    "name": "Meade Gen George C School",
    "city": "Philadelphia",
    "lat": 39.9784,
    "lng": -75.1648,
    "district": "Philadelphia City",
    "level": "other",
    "score": 1,
    "k8": true
  },
  {
    "id": "421899003635",
    "name": "Stanton Edwin M School",
    "city": "Philadelphia",
    "lat": 39.9404,
    "lng": -75.1708,
    "district": "Philadelphia City",
    "level": "other",
    "score": 3,
    "k8": true
  },
  {
    "id": "421899003636",
    "name": "Waring Laura W School",
    "city": "Philadelphia",
    "lat": 39.9648,
    "lng": -75.1677,
    "district": "Philadelphia City",
    "level": "other",
    "score": 2,
    "k8": true
  },
  {
    "id": "421899003639",
    "name": "Fell D Newlin School",
    "city": "Philadelphia",
    "lat": 39.9154,
    "lng": -75.1634,
    "district": "Philadelphia City",
    "level": "other",
    "score": 3,
    "k8": true
  },
  {
    "id": "421899003642",
    "name": "Fanny Jackson Coppin School",
    "city": "Philadelphia",
    "lat": 39.9346,
    "lng": -75.1634,
    "district": "Philadelphia City",
    "level": "other",
    "score": 6,
    "k8": true
  },
  {
    "id": "421899003644",
    "name": "Jenks Abram School",
    "city": "Philadelphia",
    "lat": 39.9189,
    "lng": -75.1684,
    "district": "Philadelphia City",
    "level": "other",
    "score": 9,
    "k8": false
  },
  {
    "id": "421899003645",
    "name": "Kearny Gen Philip School",
    "city": "Philadelphia",
    "lat": 39.9639,
    "lng": -75.1483,
    "district": "Philadelphia City",
    "level": "other",
    "score": 2,
    "k8": true
  },
  {
    "id": "421899003646",
    "name": "Key Francis Scott School",
    "city": "Philadelphia",
    "lat": 39.9208,
    "lng": -75.1607,
    "district": "Philadelphia City",
    "level": "other",
    "score": 2,
    "k8": false
  },
  {
    "id": "421899003647",
    "name": "Kirkbride Eliza B School",
    "city": "Philadelphia",
    "lat": 39.93,
    "lng": -75.1563,
    "district": "Philadelphia City",
    "level": "other",
    "score": 3,
    "k8": true
  },
  {
    "id": "421899003648",
    "name": "McCall Gen George A School",
    "city": "Philadelphia",
    "lat": 39.9446,
    "lng": -75.1527,
    "district": "Philadelphia City",
    "level": "other",
    "score": 10,
    "k8": true
  },
  {
    "id": "421899003649",
    "name": "Meredith William M School",
    "city": "Philadelphia",
    "lat": 39.9395,
    "lng": -75.1509,
    "district": "Philadelphia City",
    "level": "other",
    "score": 10,
    "k8": true
  },
  {
    "id": "421899003650",
    "name": "Nebinger George W School",
    "city": "Philadelphia",
    "lat": 39.9367,
    "lng": -75.1539,
    "district": "Philadelphia City",
    "level": "other",
    "score": 5,
    "k8": true
  },
  {
    "id": "421899003653",
    "name": "Sharswood George School",
    "city": "Philadelphia",
    "lat": 39.9188,
    "lng": -75.1509,
    "district": "Philadelphia City",
    "level": "other",
    "score": 2,
    "k8": true
  },
  {
    "id": "421899003654",
    "name": "Southwark School",
    "city": "Philadelphia",
    "lat": 39.926,
    "lng": -75.1604,
    "district": "Philadelphia City",
    "level": "other",
    "score": 2,
    "k8": true
  },
  {
    "id": "421899003655",
    "name": "Spring Garden School",
    "city": "Philadelphia",
    "lat": 39.96516,
    "lng": -75.15619,
    "district": "Philadelphia City",
    "level": "other",
    "score": 1,
    "k8": true
  },
  {
    "id": "421899003657",
    "name": "Taggart John H School",
    "city": "Philadelphia",
    "lat": 39.9171,
    "lng": -75.1548,
    "district": "Philadelphia City",
    "level": "other",
    "score": 2,
    "k8": true
  },
  {
    "id": "421899003662",
    "name": "Blaine James G School",
    "city": "Philadelphia",
    "lat": 39.9853,
    "lng": -75.1834,
    "district": "Philadelphia City",
    "level": "other",
    "score": 1,
    "k8": true
  },
  {
    "id": "421899003663",
    "name": "Blankenburg Rudolph School",
    "city": "Philadelphia",
    "lat": 39.9726,
    "lng": -75.2153,
    "district": "Philadelphia City",
    "level": "other",
    "score": 1,
    "k8": true
  },
  {
    "id": "421899003664",
    "name": "Lewis C Cassidy Academics Plus School",
    "city": "Philadelphia",
    "lat": 39.97548,
    "lng": -75.26782,
    "district": "Philadelphia City",
    "level": "other",
    "score": 1,
    "k8": true
  },
  {
    "id": "421899003668",
    "name": "Samuel Gompers School",
    "city": "Philadelphia",
    "lat": 39.9928,
    "lng": -75.2383,
    "district": "Philadelphia City",
    "level": "other",
    "score": 1,
    "k8": true
  },
  {
    "id": "421899003670",
    "name": "Lamberton Robert E School",
    "city": "Philadelphia",
    "lat": 39.9754,
    "lng": -75.2666,
    "district": "Philadelphia City",
    "level": "other",
    "score": 1,
    "k8": true
  },
  {
    "id": "421899003675",
    "name": "Peirce Thomas M School",
    "city": "Philadelphia",
    "lat": 39.9986,
    "lng": -75.1683,
    "district": "Philadelphia City",
    "level": "other",
    "score": 1,
    "k8": false
  },
  {
    "id": "421899003684",
    "name": "Brown Henry A School",
    "city": "Philadelphia",
    "lat": 39.9867,
    "lng": -75.1276,
    "district": "Philadelphia City",
    "level": "other",
    "score": 2,
    "k8": true
  },
  {
    "id": "421899003687",
    "name": "Dunbar Paul L School",
    "city": "Philadelphia",
    "lat": 39.979,
    "lng": -75.1542,
    "district": "Philadelphia City",
    "level": "other",
    "score": 2,
    "k8": true
  },
  {
    "id": "421899003688",
    "name": "Elkin Lewis School",
    "city": "Philadelphia",
    "lat": 39.997,
    "lng": -75.1209,
    "district": "Philadelphia City",
    "level": "other",
    "score": 1,
    "k8": false
  },
  {
    "id": "421899003693",
    "name": "Hunter William H School",
    "city": "Philadelphia",
    "lat": 39.98746,
    "lng": -75.13207,
    "district": "Philadelphia City",
    "level": "other",
    "score": 1,
    "k8": true
  },
  {
    "id": "421899003694",
    "name": "Ludlow James R School",
    "city": "Philadelphia",
    "lat": 39.9725,
    "lng": -75.146,
    "district": "Philadelphia City",
    "level": "other",
    "score": 1,
    "k8": true
  },
  {
    "id": "421899003697",
    "name": "Moffet John School",
    "city": "Philadelphia",
    "lat": 39.9749,
    "lng": -75.1359,
    "district": "Philadelphia City",
    "level": "other",
    "score": 3,
    "k8": false
  },
  {
    "id": "421899003701",
    "name": "Richmond School",
    "city": "Philadelphia",
    "lat": 39.9834,
    "lng": -75.1104,
    "district": "Philadelphia City",
    "level": "other",
    "score": 3,
    "k8": false
  },
  {
    "id": "421899003702",
    "name": "Sheppard Isaac School",
    "city": "Philadelphia",
    "lat": 39.9937,
    "lng": -75.1316,
    "district": "Philadelphia City",
    "level": "other",
    "score": 2,
    "k8": false
  },
  {
    "id": "421899003703",
    "name": "Welsh John School",
    "city": "Philadelphia",
    "lat": 39.9867,
    "lng": -75.1393,
    "district": "Philadelphia City",
    "level": "other",
    "score": 1,
    "k8": true
  },
  {
    "id": "421899003706",
    "name": "Day Anna B School",
    "city": "Philadelphia",
    "lat": 40.0587,
    "lng": -75.1682,
    "district": "Philadelphia City",
    "level": "other",
    "score": 1,
    "k8": true
  },
  {
    "id": "421899003708",
    "name": "Franklin S Edmonds School",
    "city": "Philadelphia",
    "lat": 40.0731,
    "lng": -75.171,
    "district": "Philadelphia City",
    "level": "other",
    "score": 1,
    "k8": true
  },
  {
    "id": "421899003709",
    "name": "Emlen Eleanor C School",
    "city": "Philadelphia",
    "lat": 40.0541,
    "lng": -75.1782,
    "district": "Philadelphia City",
    "level": "other",
    "score": 2,
    "k8": false
  },
  {
    "id": "421899003711",
    "name": "Hill Freedman World Academy",
    "city": "Philadelphia",
    "lat": 40.07103,
    "lng": -75.17481,
    "district": "Philadelphia City",
    "level": "other",
    "score": 4,
    "k8": false
  },
  {
    "id": "421899003712",
    "name": "Henry Charles W School",
    "city": "Philadelphia",
    "lat": 40.046,
    "lng": -75.1968,
    "district": "Philadelphia City",
    "level": "other",
    "score": 7,
    "k8": true
  },
  {
    "id": "421899003713",
    "name": "Houston Henry E School",
    "city": "Philadelphia",
    "lat": 40.0591,
    "lng": -75.1948,
    "district": "Philadelphia City",
    "level": "other",
    "score": 3,
    "k8": true
  },
  {
    "id": "421899003714",
    "name": "John Story Jenks Academy for the Arts and Sciences",
    "city": "Philadelphia",
    "lat": 40.075,
    "lng": -75.2033,
    "district": "Philadelphia City",
    "level": "other",
    "score": 5,
    "k8": true
  },
  {
    "id": "421899003717",
    "name": "Lingelbach Anna L School",
    "city": "Philadelphia",
    "lat": 40.0374,
    "lng": -75.1898,
    "district": "Philadelphia City",
    "level": "other",
    "score": 3,
    "k8": true
  },
  {
    "id": "421899003718",
    "name": "Logan James School",
    "city": "Philadelphia",
    "lat": 40.031,
    "lng": -75.152,
    "district": "Philadelphia City",
    "level": "other",
    "score": 2,
    "k8": false
  },
  {
    "id": "421899003719",
    "name": "McCloskey John F School",
    "city": "Philadelphia",
    "lat": 40.081,
    "lng": -75.1748,
    "district": "Philadelphia City",
    "level": "other",
    "score": 1,
    "k8": true
  },
  {
    "id": "421899003720",
    "name": "Mifflin Thomas School",
    "city": "Philadelphia",
    "lat": 40.0134,
    "lng": -75.1917,
    "district": "Philadelphia City",
    "level": "other",
    "score": 3,
    "k8": true
  },
  {
    "id": "421899003722",
    "name": "Pennell Joseph School",
    "city": "Philadelphia",
    "lat": 40.0434,
    "lng": -75.1508,
    "district": "Philadelphia City",
    "level": "other",
    "score": 2,
    "k8": false
  },
  {
    "id": "421899003724",
    "name": "Rowen William School",
    "city": "Philadelphia",
    "lat": 40.0587,
    "lng": -75.1483,
    "district": "Philadelphia City",
    "level": "other",
    "score": 1,
    "k8": false
  },
  {
    "id": "421899003725",
    "name": "Shawmont School",
    "city": "Philadelphia",
    "lat": 40.0515,
    "lng": -75.2386,
    "district": "Philadelphia City",
    "level": "other",
    "score": 4,
    "k8": true
  },
  {
    "id": "421899003726",
    "name": "Dobson James School",
    "city": "Philadelphia",
    "lat": 40.0314,
    "lng": -75.2304,
    "district": "Philadelphia City",
    "level": "other",
    "score": 6,
    "k8": true
  },
  {
    "id": "421899003727",
    "name": "Steel Edward School",
    "city": "Philadelphia",
    "lat": 40.0185,
    "lng": -75.1574,
    "district": "Philadelphia City",
    "level": "other",
    "score": 1,
    "k8": true
  },
  {
    "id": "421899003728",
    "name": "Widener Memorial School",
    "city": "Philadelphia",
    "lat": 40.0372,
    "lng": -75.1471,
    "district": "Philadelphia City",
    "level": "other",
    "score": 1,
    "k8": false
  },
  {
    "id": "421899003732",
    "name": "Barton Clara School",
    "city": "Philadelphia",
    "lat": 40.0204,
    "lng": -75.1195,
    "district": "Philadelphia City",
    "level": "other",
    "score": null,
    "k8": false
  },
  {
    "id": "421899003734",
    "name": "Carnell Laura H School",
    "city": "Philadelphia",
    "lat": 40.039,
    "lng": -75.0843,
    "district": "Philadelphia City",
    "level": "other",
    "score": 1,
    "k8": false
  },
  {
    "id": "421899003738",
    "name": "Ellwood School",
    "city": "Philadelphia",
    "lat": 40.0551,
    "lng": -75.1386,
    "district": "Philadelphia City",
    "level": "other",
    "score": 2,
    "k8": false
  },
  {
    "id": "421899003739",
    "name": "Finletter Thomas K School",
    "city": "Philadelphia",
    "lat": 40.0439,
    "lng": -75.119,
    "district": "Philadelphia City",
    "level": "other",
    "score": 1,
    "k8": true
  },
  {
    "id": "421899003742",
    "name": "Hopkinson Francis School",
    "city": "Philadelphia",
    "lat": 40.0084,
    "lng": -75.1023,
    "district": "Philadelphia City",
    "level": "other",
    "score": 1,
    "k8": true
  },
  {
    "id": "421899003743",
    "name": "Howe Julia Ward School",
    "city": "Philadelphia",
    "lat": 40.0415,
    "lng": -75.1422,
    "district": "Philadelphia City",
    "level": "other",
    "score": 2,
    "k8": false
  },
  {
    "id": "421899003744",
    "name": "Lawton Henry W School",
    "city": "Philadelphia",
    "lat": 40.0203,
    "lng": -75.0586,
    "district": "Philadelphia City",
    "level": "other",
    "score": 2,
    "k8": false
  },
  {
    "id": "421899003745",
    "name": "Bridesburg School",
    "city": "Philadelphia",
    "lat": 40.0004,
    "lng": -75.0669,
    "district": "Philadelphia City",
    "level": "other",
    "score": 3,
    "k8": true
  },
  {
    "id": "421899003746",
    "name": "Lowell James R School",
    "city": "Philadelphia",
    "lat": 40.0408,
    "lng": -75.1291,
    "district": "Philadelphia City",
    "level": "other",
    "score": 2,
    "k8": false
  },
  {
    "id": "421899003749",
    "name": "Morrison Andrew J School",
    "city": "Philadelphia",
    "lat": 40.0295,
    "lng": -75.1296,
    "district": "Philadelphia City",
    "level": "other",
    "score": 1,
    "k8": true
  },
  {
    "id": "421899003750",
    "name": "Olney Elementary School",
    "city": "Philadelphia",
    "lat": 40.031,
    "lng": -75.1206,
    "district": "Philadelphia City",
    "level": "elementary",
    "score": 2,
    "k8": true
  },
  {
    "id": "421899003751",
    "name": "Feltonville Intermediate School",
    "city": "Philadelphia",
    "lat": 40.0204,
    "lng": -75.1211,
    "district": "Philadelphia City",
    "level": "middle",
    "score": 1,
    "k8": false
  },
  {
    "id": "421899003753",
    "name": "Sullivan James J School",
    "city": "Philadelphia",
    "lat": 40.01603,
    "lng": -75.067,
    "district": "Philadelphia City",
    "level": "other",
    "score": 1,
    "k8": false
  },
  {
    "id": "421899003754",
    "name": "Ziegler William H School",
    "city": "Philadelphia",
    "lat": 40.0302,
    "lng": -75.0753,
    "district": "Philadelphia City",
    "level": "other",
    "score": 1,
    "k8": true
  },
  {
    "id": "421899003755",
    "name": "Taylor Bayard School",
    "city": "Philadelphia",
    "lat": 40.0071,
    "lng": -75.1382,
    "district": "Philadelphia City",
    "level": "other",
    "score": 1,
    "k8": false
  },
  {
    "id": "421899003758",
    "name": "Allen Ethan School",
    "city": "Philadelphia",
    "lat": 40.0298,
    "lng": -75.0618,
    "district": "Philadelphia City",
    "level": "other",
    "score": 1,
    "k8": true
  },
  {
    "id": "421899003760",
    "name": "Comly Watson School",
    "city": "Philadelphia",
    "lat": 40.1208,
    "lng": -75.0096,
    "district": "Philadelphia City",
    "level": "other",
    "score": 5,
    "k8": false
  },
  {
    "id": "421899003762",
    "name": "Crossan Kennedy C School",
    "city": "Philadelphia",
    "lat": 40.0622,
    "lng": -75.0812,
    "district": "Philadelphia City",
    "level": "other",
    "score": 3,
    "k8": false
  },
  {
    "id": "421899003763",
    "name": "Disston Hamilton School",
    "city": "Philadelphia",
    "lat": 40.0282,
    "lng": -75.0469,
    "district": "Philadelphia City",
    "level": "other",
    "score": 1,
    "k8": true
  },
  {
    "id": "421899003764",
    "name": "Forrest Edwin School",
    "city": "Philadelphia",
    "lat": 40.0345,
    "lng": -75.036,
    "district": "Philadelphia City",
    "level": "other",
    "score": 2,
    "k8": false
  },
  {
    "id": "421899003765",
    "name": "Fox Chase School",
    "city": "Philadelphia",
    "lat": 40.075,
    "lng": -75.0809,
    "district": "Philadelphia City",
    "level": "other",
    "score": 5,
    "k8": false
  },
  {
    "id": "421899003766",
    "name": "Holme Thomas School",
    "city": "Philadelphia",
    "lat": 40.04584,
    "lng": -75.04415,
    "district": "Philadelphia City",
    "level": "other",
    "score": 3,
    "k8": true
  },
  {
    "id": "421899003769",
    "name": "Mayfair School",
    "city": "Philadelphia",
    "lat": 40.0393,
    "lng": -75.0519,
    "district": "Philadelphia City",
    "level": "other",
    "score": 2,
    "k8": true
  },
  {
    "id": "421899003770",
    "name": "Moore J Hampton School",
    "city": "Philadelphia",
    "lat": 40.04918,
    "lng": -75.07701,
    "district": "Philadelphia City",
    "level": "other",
    "score": 3,
    "k8": false
  },
  {
    "id": "421899003771",
    "name": "Rhawnhurst School",
    "city": "Philadelphia",
    "lat": 40.0586,
    "lng": -75.058,
    "district": "Philadelphia City",
    "level": "other",
    "score": 3,
    "k8": false
  },
  {
    "id": "421899003773",
    "name": "Solis-Cohen Solomon School",
    "city": "Philadelphia",
    "lat": 40.04448,
    "lng": -75.06317,
    "district": "Philadelphia City",
    "level": "other",
    "score": 2,
    "k8": false
  },
  {
    "id": "421899003774",
    "name": "Spruance Gilbert School",
    "city": "Philadelphia",
    "lat": 40.0374,
    "lng": -75.0728,
    "district": "Philadelphia City",
    "level": "other",
    "score": 2,
    "k8": true
  },
  {
    "id": "421899003776",
    "name": "Girard Stephen School",
    "city": "Philadelphia",
    "lat": 39.9246,
    "lng": -75.177,
    "district": "Philadelphia City",
    "level": "other",
    "score": 3,
    "k8": false
  },
  {
    "id": "421899003779",
    "name": "Farrell Louis H School",
    "city": "Philadelphia",
    "lat": 40.0669,
    "lng": -75.0518,
    "district": "Philadelphia City",
    "level": "other",
    "score": 3,
    "k8": true
  },
  {
    "id": "421899003781",
    "name": "Fitzpatrick Aloysius L School",
    "city": "Philadelphia",
    "lat": 40.0805,
    "lng": -74.9766,
    "district": "Philadelphia City",
    "level": "other",
    "score": 3,
    "k8": true
  },
  {
    "id": "421899003782",
    "name": "Comegys Benjamin B School",
    "city": "Philadelphia",
    "lat": 39.9406,
    "lng": -75.2164,
    "district": "Philadelphia City",
    "level": "other",
    "score": 1,
    "k8": true
  },
  {
    "id": "421899003783",
    "name": "Powel Samuel School",
    "city": "Philadelphia",
    "lat": 39.95773,
    "lng": -75.19418,
    "district": "Philadelphia City",
    "level": "other",
    "score": 8,
    "k8": false
  },
  {
    "id": "421899003786",
    "name": "Dick William School",
    "city": "Philadelphia",
    "lat": 39.98667,
    "lng": -75.17365,
    "district": "Philadelphia City",
    "level": "other",
    "score": 1,
    "k8": true
  },
  {
    "id": "421899003797",
    "name": "Marshall John School",
    "city": "Philadelphia",
    "lat": 40.0146,
    "lng": -75.0875,
    "district": "Philadelphia City",
    "level": "other",
    "score": 1,
    "k8": false
  },
  {
    "id": "421899003798",
    "name": "Mitchell Elementary School",
    "city": "Philadelphia",
    "lat": 39.9368,
    "lng": -75.2235,
    "district": "Philadelphia City",
    "level": "elementary",
    "score": 1,
    "k8": true
  },
  {
    "id": "421899003800",
    "name": "Sheridan School",
    "city": "Philadelphia",
    "lat": 39.9996,
    "lng": -75.1145,
    "district": "Philadelphia City",
    "level": "other",
    "score": 1,
    "k8": false
  },
  {
    "id": "421899003801",
    "name": "Pollock Robert B School",
    "city": "Philadelphia",
    "lat": 40.05962,
    "lng": -75.02752,
    "district": "Philadelphia City",
    "level": "other",
    "score": 3,
    "k8": true
  },
  {
    "id": "421899003803",
    "name": "Frank Anne School",
    "city": "Philadelphia",
    "lat": 40.0882,
    "lng": -75.0284,
    "district": "Philadelphia City",
    "level": "other",
    "score": 7,
    "k8": false
  },
  {
    "id": "421899003804",
    "name": "Anderson Add B School",
    "city": "Philadelphia",
    "lat": 39.9468,
    "lng": -75.2458,
    "district": "Philadelphia City",
    "level": "other",
    "score": 1,
    "k8": true
  },
  {
    "id": "421899003805",
    "name": "Marian Anderson Neighborhood Academy",
    "city": "Philadelphia",
    "lat": 39.9418,
    "lng": -75.1761,
    "district": "Philadelphia City",
    "level": "other",
    "score": 5,
    "k8": true
  },
  {
    "id": "421899003808",
    "name": "Masterman Julia R Sec School",
    "city": "Philadelphia",
    "lat": 39.9635,
    "lng": -75.1658,
    "district": "Philadelphia City",
    "level": "other",
    "score": 10,
    "k8": false
  },
  {
    "id": "421899003815",
    "name": "Cooke Jay Middle School",
    "city": "Philadelphia",
    "lat": 40.0256,
    "lng": -75.1461,
    "district": "Philadelphia City",
    "level": "middle",
    "score": 1,
    "k8": true
  },
  {
    "id": "421899003816",
    "name": "Fels Samuel High School",
    "city": "Philadelphia",
    "lat": 40.03653,
    "lng": -75.09261,
    "district": "Philadelphia City",
    "level": "high",
    "score": 1,
    "k8": false
  },
  {
    "id": "421899003818",
    "name": "Furness Horace High School",
    "city": "Philadelphia",
    "lat": 39.9238,
    "lng": -75.1509,
    "district": "Philadelphia City",
    "level": "high",
    "score": 2,
    "k8": false
  },
  {
    "id": "421899003820",
    "name": "Harding Warren G Middle School",
    "city": "Philadelphia",
    "lat": 40.0129,
    "lng": -75.0743,
    "district": "Philadelphia City",
    "level": "middle",
    "score": 1,
    "k8": false
  },
  {
    "id": "421899003825",
    "name": "Sayre William L Middle School",
    "city": "Philadelphia",
    "lat": 39.9577,
    "lng": -75.2387,
    "district": "Philadelphia City",
    "level": "middle",
    "score": 1,
    "k8": false
  },
  {
    "id": "421899003835",
    "name": "Wagner Gen Louis Middle School",
    "city": "Philadelphia",
    "lat": 40.0518,
    "lng": -75.1477,
    "district": "Philadelphia City",
    "level": "middle",
    "score": 1,
    "k8": false
  },
  {
    "id": "421899003836",
    "name": "Castor Gardens Middle School",
    "city": "Philadelphia",
    "lat": 40.0524,
    "lng": -75.069,
    "district": "Philadelphia City",
    "level": "middle",
    "score": 2,
    "k8": false
  },
  {
    "id": "421899003839",
    "name": "Strawberry Mansion High School",
    "city": "Philadelphia",
    "lat": 39.9902,
    "lng": -75.1839,
    "district": "Philadelphia City",
    "level": "high",
    "score": 1,
    "k8": false
  },
  {
    "id": "421899003841",
    "name": "Dobbins Area Vocational-Technical High School",
    "city": "Philadelphia",
    "lat": 39.995,
    "lng": -75.1669,
    "district": "Philadelphia City",
    "level": "high",
    "score": 1,
    "k8": false
  },
  {
    "id": "421899003842",
    "name": "Mastbaum Jules E Area Vocational-Technical School",
    "city": "Philadelphia",
    "lat": 39.9925,
    "lng": -75.1121,
    "district": "Philadelphia City",
    "level": "other",
    "score": 1,
    "k8": false
  },
  {
    "id": "421899003843",
    "name": "Girls High School",
    "city": "Philadelphia",
    "lat": 40.0384,
    "lng": -75.1462,
    "district": "Philadelphia City",
    "level": "high",
    "score": 5,
    "k8": false
  },
  {
    "id": "421899003844",
    "name": "Roxborough High School",
    "city": "Philadelphia",
    "lat": 40.0376,
    "lng": -75.2228,
    "district": "Philadelphia City",
    "level": "high",
    "score": 1,
    "k8": false
  },
  {
    "id": "421899003845",
    "name": "Lincoln High School",
    "city": "Philadelphia",
    "lat": 40.0441,
    "lng": -75.04246,
    "district": "Philadelphia City",
    "level": "high",
    "score": 1,
    "k8": false
  },
  {
    "id": "421899003847",
    "name": "Bartram John - Main",
    "city": "Philadelphia",
    "lat": 39.92182,
    "lng": -75.23385,
    "district": "Philadelphia City",
    "level": "other",
    "score": 1,
    "k8": false
  },
  {
    "id": "421899003848",
    "name": "Central High School",
    "city": "Philadelphia",
    "lat": 40.0375,
    "lng": -75.1501,
    "district": "Philadelphia City",
    "level": "high",
    "score": 10,
    "k8": false
  },
  {
    "id": "421899003849",
    "name": "Edison High School/Fareira Skills",
    "city": "Philadelphia",
    "lat": 40.0122,
    "lng": -75.1293,
    "district": "Philadelphia City",
    "level": "high",
    "score": 1,
    "k8": false
  },
  {
    "id": "421899003850",
    "name": "Frankford High School",
    "city": "Philadelphia",
    "lat": 40.0216,
    "lng": -75.0854,
    "district": "Philadelphia City",
    "level": "high",
    "score": 1,
    "k8": false
  },
  {
    "id": "421899003851",
    "name": "Franklin Benjamin High School",
    "city": "Philadelphia",
    "lat": 39.9637,
    "lng": -75.1621,
    "district": "Philadelphia City",
    "level": "high",
    "score": 1,
    "k8": true
  },
  {
    "id": "421899003855",
    "name": "Northeast High School",
    "city": "Philadelphia",
    "lat": 40.0559,
    "lng": -75.071,
    "district": "Philadelphia City",
    "level": "high",
    "score": 3,
    "k8": false
  },
  {
    "id": "421899003857",
    "name": "Overbrook High School",
    "city": "Philadelphia",
    "lat": 39.9811,
    "lng": -75.2385,
    "district": "Philadelphia City",
    "level": "high",
    "score": 2,
    "k8": true
  },
  {
    "id": "421899003859",
    "name": "South Philadelphia High School",
    "city": "Philadelphia",
    "lat": 39.9234,
    "lng": -75.1682,
    "district": "Philadelphia City",
    "level": "high",
    "score": 1,
    "k8": false
  },
  {
    "id": "421899003860",
    "name": "West Philadelphia High School",
    "city": "Philadelphia",
    "lat": 39.95841,
    "lng": -75.21955,
    "district": "Philadelphia City",
    "level": "high",
    "score": 1,
    "k8": false
  },
  {
    "id": "421899003861",
    "name": "Saul W B Agricultural School",
    "city": "Philadelphia",
    "lat": 40.0493,
    "lng": -75.2215,
    "district": "Philadelphia City",
    "level": "other",
    "score": 2,
    "k8": false
  },
  {
    "id": "421899004726",
    "name": "Greenberg Joseph School",
    "city": "Philadelphia",
    "lat": 40.0957,
    "lng": -75.0574,
    "district": "Philadelphia City",
    "level": "other",
    "score": 9,
    "k8": true
  },
  {
    "id": "421899004727",
    "name": "Decatur Stephen School",
    "city": "Philadelphia",
    "lat": 40.0958,
    "lng": -74.9707,
    "district": "Philadelphia City",
    "level": "other",
    "score": 4,
    "k8": true
  },
  {
    "id": "421899004732",
    "name": "Locke Alain School",
    "city": "Philadelphia",
    "lat": 39.9621,
    "lng": -75.2124,
    "district": "Philadelphia City",
    "level": "other",
    "score": 1,
    "k8": true
  },
  {
    "id": "421899004868",
    "name": "Morris Robert School",
    "city": "Philadelphia",
    "lat": 39.9755,
    "lng": -75.1788,
    "district": "Philadelphia City",
    "level": "other",
    "score": 1,
    "k8": true
  },
  {
    "id": "421899004961",
    "name": "Loesche William H School",
    "city": "Philadelphia",
    "lat": 40.11419,
    "lng": -75.02358,
    "district": "Philadelphia City",
    "level": "other",
    "score": 5,
    "k8": false
  },
  {
    "id": "421899004963",
    "name": "Stearne Allen M School",
    "city": "Philadelphia",
    "lat": 40.0118,
    "lng": -75.0852,
    "district": "Philadelphia City",
    "level": "other",
    "score": 1,
    "k8": true
  },
  {
    "id": "421899005040",
    "name": "Duckrey Tanner School",
    "city": "Philadelphia",
    "lat": 39.9854,
    "lng": -75.1589,
    "district": "Philadelphia City",
    "level": "other",
    "score": 1,
    "k8": true
  },
  {
    "id": "421899005041",
    "name": "John Hancock Demonstration School",
    "city": "Philadelphia",
    "lat": 40.0674,
    "lng": -74.9891,
    "district": "Philadelphia City",
    "level": "other",
    "score": 4,
    "k8": true
  },
  {
    "id": "421899005120",
    "name": "Hackett Horatio B School",
    "city": "Philadelphia",
    "lat": 39.9812,
    "lng": -75.1268,
    "district": "Philadelphia City",
    "level": "other",
    "score": 8,
    "k8": false
  },
  {
    "id": "421899005121",
    "name": "Potter-Thomas School",
    "city": "Philadelphia",
    "lat": 39.9973,
    "lng": -75.1406,
    "district": "Philadelphia City",
    "level": "other",
    "score": 1,
    "k8": true
  },
  {
    "id": "421899005122",
    "name": "Cook-Wissahickon School",
    "city": "Philadelphia",
    "lat": 40.0226,
    "lng": -75.2069,
    "district": "Philadelphia City",
    "level": "other",
    "score": 5,
    "k8": true
  },
  {
    "id": "421899005123",
    "name": "Cramp William School",
    "city": "Philadelphia",
    "lat": 40.0028,
    "lng": -75.13,
    "district": "Philadelphia City",
    "level": "other",
    "score": 1,
    "k8": false
  },
  {
    "id": "421899005124",
    "name": "Webster School",
    "city": "Philadelphia",
    "lat": 39.9962,
    "lng": -75.1056,
    "district": "Philadelphia City",
    "level": "other",
    "score": 2,
    "k8": false
  },
  {
    "id": "421899005125",
    "name": "Hartranft John F School",
    "city": "Philadelphia",
    "lat": 39.9892,
    "lng": -75.1451,
    "district": "Philadelphia City",
    "level": "other",
    "score": 1,
    "k8": true
  },
  {
    "id": "421899005183",
    "name": "Bethune Mary McLeod School",
    "city": "Philadelphia",
    "lat": 40.0035,
    "lng": -75.1481,
    "district": "Philadelphia City",
    "level": "other",
    "score": 1,
    "k8": true
  },
  {
    "id": "421899005185",
    "name": "Hamilton Andrew School",
    "city": "Philadelphia",
    "lat": 39.9554,
    "lng": -75.2356,
    "district": "Philadelphia City",
    "level": "other",
    "score": 1,
    "k8": true
  },
  {
    "id": "421899005186",
    "name": "Greenfield Albert M School",
    "city": "Philadelphia",
    "lat": 39.9523,
    "lng": -75.1776,
    "district": "Philadelphia City",
    "level": "other",
    "score": 10,
    "k8": true
  },
  {
    "id": "421899005187",
    "name": "Heston Edward School",
    "city": "Philadelphia",
    "lat": 39.9779,
    "lng": -75.2295,
    "district": "Philadelphia City",
    "level": "other",
    "score": 1,
    "k8": true
  },
  {
    "id": "421899005188",
    "name": "Wright Richard R School",
    "city": "Philadelphia",
    "lat": 39.9903,
    "lng": -75.1776,
    "district": "Philadelphia City",
    "level": "other",
    "score": 1,
    "k8": false
  },
  {
    "id": "421899005292",
    "name": "Allen Dr Ethel School",
    "city": "Philadelphia",
    "lat": 39.9974,
    "lng": -75.1837,
    "district": "Philadelphia City",
    "level": "other",
    "score": 1,
    "k8": true
  },
  {
    "id": "421899005293",
    "name": "McKinley William School",
    "city": "Philadelphia",
    "lat": 39.9834,
    "lng": -75.1411,
    "district": "Philadelphia City",
    "level": "other",
    "score": 1,
    "k8": true
  },
  {
    "id": "421899005294",
    "name": "Kelly John B School",
    "city": "Philadelphia",
    "lat": 40.0252,
    "lng": -75.1725,
    "district": "Philadelphia City",
    "level": "other",
    "score": 2,
    "k8": false
  },
  {
    "id": "421899006123",
    "name": "Juniata Park Academy",
    "city": "Philadelphia",
    "lat": 40.0126,
    "lng": -75.1118,
    "district": "Philadelphia City",
    "level": "other",
    "score": 2,
    "k8": true
  },
  {
    "id": "421899006524",
    "name": "Adaire Alexander School",
    "city": "Philadelphia",
    "lat": 39.97227,
    "lng": -75.13016,
    "district": "Philadelphia City",
    "level": "other",
    "score": 8,
    "k8": true
  },
  {
    "id": "421899006525",
    "name": "Conwell Russell Middle School",
    "city": "Philadelphia",
    "lat": 39.9943,
    "lng": -75.1147,
    "district": "Philadelphia City",
    "level": "middle",
    "score": 3,
    "k8": false
  },
  {
    "id": "421899006527",
    "name": "Washington George High School",
    "city": "Philadelphia",
    "lat": 40.1057,
    "lng": -75.0261,
    "district": "Philadelphia City",
    "level": "high",
    "score": 2,
    "k8": false
  },
  {
    "id": "421899006528",
    "name": "Harrington Avery D School",
    "city": "Philadelphia",
    "lat": 39.9474,
    "lng": -75.2301,
    "district": "Philadelphia City",
    "level": "other",
    "score": 1,
    "k8": true
  },
  {
    "id": "421899006529",
    "name": "Brown Joseph School",
    "city": "Philadelphia",
    "lat": 40.0435,
    "lng": -75.0246,
    "district": "Philadelphia City",
    "level": "other",
    "score": 2,
    "k8": true
  },
  {
    "id": "421899006530",
    "name": "Lea Henry C School",
    "city": "Philadelphia",
    "lat": 39.9545,
    "lng": -75.2163,
    "district": "Philadelphia City",
    "level": "other",
    "score": 2,
    "k8": true
  },
  {
    "id": "421899006533",
    "name": "Longstreth William C School",
    "city": "Philadelphia",
    "lat": 39.9405,
    "lng": -75.2325,
    "district": "Philadelphia City",
    "level": "other",
    "score": 1,
    "k8": true
  },
  {
    "id": "421899006534",
    "name": "McClure Alexander K School",
    "city": "Philadelphia",
    "lat": 40.0151,
    "lng": -75.1376,
    "district": "Philadelphia City",
    "level": "other",
    "score": 1,
    "k8": false
  },
  {
    "id": "421899006535",
    "name": "Morton Thomas G School",
    "city": "Philadelphia",
    "lat": 39.9238,
    "lng": -75.227,
    "district": "Philadelphia City",
    "level": "other",
    "score": 1,
    "k8": false
  },
  {
    "id": "421899006539",
    "name": "Samuel Pennypacker School",
    "city": "Philadelphia",
    "lat": 40.06531,
    "lng": -75.15891,
    "district": "Philadelphia City",
    "level": "other",
    "score": 1,
    "k8": true
  },
  {
    "id": "421899006544",
    "name": "Willard Frances E School",
    "city": "Philadelphia",
    "lat": 39.99324,
    "lng": -75.11643,
    "district": "Philadelphia City",
    "level": "other",
    "score": 1,
    "k8": false
  },
  {
    "id": "421899006548",
    "name": "Parkway Northwest",
    "city": "Philadelphia",
    "lat": 40.05642,
    "lng": -75.16537,
    "district": "Philadelphia City",
    "level": "other",
    "score": 2,
    "k8": false
  },
  {
    "id": "421899006675",
    "name": "King Martin Luther High School",
    "city": "Philadelphia",
    "lat": 40.0564,
    "lng": -75.1615,
    "district": "Philadelphia City",
    "level": "high",
    "score": 1,
    "k8": false
  },
  {
    "id": "421899006765",
    "name": "Prince Hall School",
    "city": "Philadelphia",
    "lat": 40.0478,
    "lng": -75.1494,
    "district": "Philadelphia City",
    "level": "other",
    "score": 2,
    "k8": false
  },
  {
    "id": "421899006767",
    "name": "Clemente Roberto Middle School",
    "city": "Philadelphia",
    "lat": 40.0068,
    "lng": -75.1296,
    "district": "Philadelphia City",
    "level": "middle",
    "score": 1,
    "k8": false
  },
  {
    "id": "421899006768",
    "name": "Meehan Austin Middle School",
    "city": "Philadelphia",
    "lat": 40.04584,
    "lng": -75.04415,
    "district": "Philadelphia City",
    "level": "middle",
    "score": 2,
    "k8": false
  },
  {
    "id": "421899006822",
    "name": "Franklin LC",
    "city": "Philadelphia",
    "lat": 39.9651,
    "lng": -75.1631,
    "district": "Philadelphia City",
    "level": "other",
    "score": 4,
    "k8": false
  },
  {
    "id": "421899006823",
    "name": "AMY at Martin",
    "city": "Philadelphia",
    "lat": 39.9856,
    "lng": -75.0972,
    "district": "Philadelphia City",
    "level": "other",
    "score": 1,
    "k8": false
  },
  {
    "id": "421899006824",
    "name": "Baldi C C A Middle School",
    "city": "Philadelphia",
    "lat": 40.0919,
    "lng": -75.0526,
    "district": "Philadelphia City",
    "level": "middle",
    "score": 4,
    "k8": false
  },
  {
    "id": "421899006869",
    "name": "Barry Comm John School",
    "city": "Philadelphia",
    "lat": 39.96437,
    "lng": -75.2386,
    "district": "Philadelphia City",
    "level": "other",
    "score": 1,
    "k8": true
  },
  {
    "id": "421899006904",
    "name": "Arts Academy at Benjamin Rush",
    "city": "Philadelphia",
    "lat": 40.08274,
    "lng": -74.97387,
    "district": "Philadelphia City",
    "level": "other",
    "score": 7,
    "k8": false
  },
  {
    "id": "421899006913",
    "name": "Fitler Academics Plus",
    "city": "Philadelphia",
    "lat": 40.0262,
    "lng": -75.1665,
    "district": "Philadelphia City",
    "level": "other",
    "score": 1,
    "k8": true
  },
  {
    "id": "421899006960",
    "name": "Overbrook Edu Ctr",
    "city": "Philadelphia",
    "lat": 39.9738,
    "lng": -75.2549,
    "district": "Philadelphia City",
    "level": "other",
    "score": 2,
    "k8": true
  },
  {
    "id": "421899006996",
    "name": "Creative and Performing Arts",
    "city": "Philadelphia",
    "lat": 39.9394,
    "lng": -75.1655,
    "district": "Philadelphia City",
    "level": "other",
    "score": 5,
    "k8": false
  },
  {
    "id": "421899007023",
    "name": "High School of Engineering & Science",
    "city": "Philadelphia",
    "lat": 39.9835,
    "lng": -75.1615,
    "district": "Philadelphia City",
    "level": "high",
    "score": 9,
    "k8": false
  },
  {
    "id": "421899007223",
    "name": "Middle Years Alternative",
    "city": "Philadelphia",
    "lat": 39.96473,
    "lng": -75.21588,
    "district": "Philadelphia City",
    "level": "middle",
    "score": 2,
    "k8": false
  },
  {
    "id": "421899007224",
    "name": "AMY NW",
    "city": "Philadelphia",
    "lat": 40.0595,
    "lng": -75.1748,
    "district": "Philadelphia City",
    "level": "other",
    "score": 2,
    "k8": false
  },
  {
    "id": "421899007225",
    "name": "Bodine William W High School",
    "city": "Philadelphia",
    "lat": 39.9681,
    "lng": -75.1432,
    "district": "Philadelphia City",
    "level": "high",
    "score": 8,
    "k8": false
  },
  {
    "id": "421899007229",
    "name": "DeBurgos Bilingual Magnet Middle School",
    "city": "Philadelphia",
    "lat": 39.9925,
    "lng": -75.1387,
    "district": "Philadelphia City",
    "level": "middle",
    "score": 1,
    "k8": true
  },
  {
    "id": "421899007477",
    "name": "Roosevelt Theodore Middle School",
    "city": "Philadelphia",
    "lat": 40.0482,
    "lng": -75.175,
    "district": "Philadelphia City",
    "level": "middle",
    "score": 1,
    "k8": true
  },
  {
    "id": "421899007496",
    "name": "Tilden William T Middle School",
    "city": "Philadelphia",
    "lat": 39.92173,
    "lng": -75.23263,
    "district": "Philadelphia City",
    "level": "middle",
    "score": 1,
    "k8": false
  },
  {
    "id": "421899007502",
    "name": "Penn Treaty School",
    "city": "Philadelphia",
    "lat": 39.9728,
    "lng": -75.1272,
    "district": "Philadelphia City",
    "level": "other",
    "score": 1,
    "k8": false
  },
  {
    "id": "421899007506",
    "name": "The SD of Philadelphia Virtual Academy",
    "city": "Philadelphia",
    "lat": 39.961,
    "lng": -75.1626,
    "district": "Philadelphia City",
    "level": "other",
    "score": 1,
    "k8": true
  },
  {
    "id": "421899007511",
    "name": "Vare-Washington Elementary School",
    "city": "Philadelphia",
    "lat": 39.9337,
    "lng": -75.1528,
    "district": "Philadelphia City",
    "level": "elementary",
    "score": 3,
    "k8": true
  },
  {
    "id": "421899007517",
    "name": "Rhodes E Washington School",
    "city": "Philadelphia",
    "lat": 40.0028,
    "lng": -75.1781,
    "district": "Philadelphia City",
    "level": "other",
    "score": 1,
    "k8": true
  },
  {
    "id": "421899007524",
    "name": "The Science Leadership Academy at Beeber",
    "city": "Philadelphia",
    "lat": 39.98655,
    "lng": -75.24218,
    "district": "Philadelphia City",
    "level": "other",
    "score": 5,
    "k8": false
  },
  {
    "id": "421899007525",
    "name": "The Linc",
    "city": "Philadelphia",
    "lat": 40.00662,
    "lng": -75.13021,
    "district": "Philadelphia City",
    "level": "other",
    "score": 1,
    "k8": false
  },
  {
    "id": "421899007534",
    "name": "Building 21",
    "city": "Philadelphia",
    "lat": 40.05363,
    "lng": -75.15254,
    "district": "Philadelphia City",
    "level": "other",
    "score": 1,
    "k8": false
  },
  {
    "id": "421899007547",
    "name": "The U School: Innovative Lab",
    "city": "Philadelphia",
    "lat": 39.98221,
    "lng": -75.14619,
    "district": "Philadelphia City",
    "level": "other",
    "score": 1,
    "k8": false
  },
  {
    "id": "421899007548",
    "name": "The Workshop School",
    "city": "Philadelphia",
    "lat": 39.9552,
    "lng": -75.2186,
    "district": "Philadelphia City",
    "level": "other",
    "score": 1,
    "k8": false
  },
  {
    "id": "421899007588",
    "name": "Philadelphia Learning Academy - West",
    "city": "Philadelphia",
    "lat": 39.96937,
    "lng": -75.21068,
    "district": "Philadelphia City",
    "level": "other",
    "score": 1,
    "k8": false
  },
  {
    "id": "421899007592",
    "name": "Science Leadership Academy Middle School",
    "city": "Philadelphia",
    "lat": 39.95773,
    "lng": -75.19418,
    "district": "Philadelphia City",
    "level": "middle",
    "score": 3,
    "k8": false
  },
  {
    "id": "421899007593",
    "name": "Kenderton Elementary School",
    "city": "Philadelphia",
    "lat": 40.0051,
    "lng": -75.15417,
    "district": "Philadelphia City",
    "level": "elementary",
    "score": 1,
    "k8": true
  },
  {
    "id": "421899007598",
    "name": "Kensington High School",
    "city": "Philadelphia",
    "lat": 39.9843,
    "lng": -75.12646,
    "district": "Philadelphia City",
    "level": "high",
    "score": 1,
    "k8": false
  },
  {
    "id": "421899007603",
    "name": "Philadelphia Learning Academy - North",
    "city": "Philadelphia",
    "lat": 40.01542,
    "lng": -75.12676,
    "district": "Philadelphia City",
    "level": "other",
    "score": 1,
    "k8": false
  },
  {
    "id": "421899007661",
    "name": "Vaux High School: A Big Picture School",
    "city": "Philadelphia",
    "lat": 39.97628,
    "lng": -75.17426,
    "district": "Philadelphia City",
    "level": "high",
    "score": 1,
    "k8": false
  },
  {
    "id": "421899007703",
    "name": "Northeast Community Propel Academy",
    "city": "Philadelphia",
    "lat": 40.04619,
    "lng": -75.04141,
    "district": "Philadelphia City",
    "level": "other",
    "score": 2,
    "k8": true
  },
  {
    "id": "421899010014",
    "name": "Franklin Benjamin School",
    "city": "Philadelphia",
    "lat": 40.0423,
    "lng": -75.1042,
    "district": "Philadelphia City",
    "level": "other",
    "score": 1,
    "k8": true
  },
  {
    "id": "421899010028",
    "name": "John B Stetson Middle School",
    "city": "Philadelphia",
    "lat": 39.99882,
    "lng": -75.12566,
    "district": "Philadelphia City",
    "level": "middle",
    "score": 1,
    "k8": false
  },
  {
    "id": "421899010029",
    "name": "Olney High School",
    "city": "Philadephia",
    "lat": 40.02876,
    "lng": -75.12384,
    "district": "Philadelphia City",
    "level": "high",
    "score": 2,
    "k8": true
  },
  {
    "id": "421899010043",
    "name": "Guidon S Bluford Elementary School",
    "city": "Philadelphia",
    "lat": 39.97385,
    "lng": -75.23608,
    "district": "Philadelphia City",
    "level": "elementary",
    "score": 1,
    "k8": true
  },
  {
    "id": "421905001425",
    "name": "Phoenixville Area Middle School",
    "city": "Phoenixville",
    "lat": 40.11993,
    "lng": -75.52392,
    "district": "Phoenixville Area",
    "level": "middle",
    "score": 6,
    "k8": false
  },
  {
    "id": "421905001426",
    "name": "Phoenixville Area High School",
    "city": "Phoenixville",
    "lat": 40.1199,
    "lng": -75.5205,
    "district": "Phoenixville Area",
    "level": "high",
    "score": 6,
    "k8": false
  },
  {
    "id": "421905001430",
    "name": "Barkley Elementary School",
    "city": "Phoenixville",
    "lat": 40.1273,
    "lng": -75.5184,
    "district": "Phoenixville Area",
    "level": "elementary",
    "score": 7,
    "k8": false
  },
  {
    "id": "421905004841",
    "name": "Schuylkill Elementary School",
    "city": "Phoenixville",
    "lat": 40.112,
    "lng": -75.5121,
    "district": "Phoenixville Area",
    "level": "elementary",
    "score": 8,
    "k8": false
  },
  {
    "id": "421905007620",
    "name": "Manavon Elementary School",
    "city": "Phoenixville",
    "lat": 40.11815,
    "lng": -75.52334,
    "district": "Phoenixville Area",
    "level": "elementary",
    "score": 9,
    "k8": false
  },
  {
    "id": "421905007622",
    "name": "Phoenixville Early Learning Ctr",
    "city": "Phoenixville",
    "lat": 40.1189,
    "lng": -75.52437,
    "district": "Phoenixville Area",
    "level": "other",
    "score": null,
    "k8": false
  },
  {
    "id": "421947003261",
    "name": "Conshohocken Elementary School",
    "city": "Conshohocken",
    "lat": 40.0748,
    "lng": -75.3029,
    "district": "Colonial",
    "level": "elementary",
    "score": 10,
    "k8": false
  },
  {
    "id": "421947003332",
    "name": "Ridge Park Elementary School",
    "city": "Conshohocken",
    "lat": 40.0976,
    "lng": -75.2902,
    "district": "Colonial",
    "level": "elementary",
    "score": 10,
    "k8": false
  },
  {
    "id": "421947003333",
    "name": "Plymouth-Whitemarsh Senior High School",
    "city": "Plymouth Meeting",
    "lat": 40.0994,
    "lng": -75.27,
    "district": "Colonial",
    "level": "high",
    "score": 10,
    "k8": false
  },
  {
    "id": "421947003411",
    "name": "Whitemarsh Elementary School",
    "city": "Lafayette Hill",
    "lat": 40.0987,
    "lng": -75.254,
    "district": "Colonial",
    "level": "elementary",
    "score": 10,
    "k8": false
  },
  {
    "id": "421947004711",
    "name": "Plymouth Elementary School",
    "city": "Plymouth Meeting",
    "lat": 40.1154,
    "lng": -75.2952,
    "district": "Colonial",
    "level": "elementary",
    "score": 9,
    "k8": false
  },
  {
    "id": "421947005077",
    "name": "Colonial Middle School",
    "city": "Plymouth Meeting",
    "lat": 40.127,
    "lng": -75.3079,
    "district": "Colonial",
    "level": "middle",
    "score": 10,
    "k8": false
  },
  {
    "id": "421947007176",
    "name": "Colonial Elementary School",
    "city": "Plymouth Meeting",
    "lat": 40.1022,
    "lng": -75.2665,
    "district": "Colonial",
    "level": "elementary",
    "score": 10,
    "k8": false
  },
  {
    "id": "421965003334",
    "name": "Lower Pottsgrove Elementary School",
    "city": "Pottstown",
    "lat": 40.2609,
    "lng": -75.6066,
    "district": "Pottsgrove",
    "level": "elementary",
    "score": 6,
    "k8": false
  },
  {
    "id": "421965003336",
    "name": "West Pottsgrove Elementary School",
    "city": "Stowe",
    "lat": 40.2508,
    "lng": -75.6855,
    "district": "Pottsgrove",
    "level": "elementary",
    "score": 3,
    "k8": false
  },
  {
    "id": "421965003337",
    "name": "Ringing Rocks Elementary School",
    "city": "Pottstown",
    "lat": 40.2665,
    "lng": -75.6194,
    "district": "Pottsgrove",
    "level": "elementary",
    "score": null,
    "k8": false
  },
  {
    "id": "421965003338",
    "name": "Pottsgrove Senior High School",
    "city": "Pottstown",
    "lat": 40.2641,
    "lng": -75.6209,
    "district": "Pottsgrove",
    "level": "high",
    "score": 3,
    "k8": false
  },